stop_id,stop_code,stop_name,stop_desc,stop_lat,stop_lon,zone_id,stop_url,location_type,parent_station,stop_timezone,wheelchair_boarding,platform_code
2593857,IN0001,"Avenida Cardeal Eugênio Pacelli, 1819 (Previdência Social)",,-19.9554662,-44.02464696,,,0,,,0,
2593860,RI0147,"Avenida Marte, 73 (Centro Comercial e Empresarial Jardim Riacho)",,-19.97193573,-44.05664661,,,0,,,0,
2593861,VA0002,"Alameda das Amaziles, 790",,-19.88830739,-44.10252118,,,0,,,0,
2593862,VA0252,"Alameda das Amaziles, 177",,-19.88576284,-44.10398347,,,0,,,0,
2593863,VA0197,"Alameda das Amaziles, 698",,-19.88777178,-44.10326513,,,0,,,0,
2593865,VA0003,"Alameda das Amaziles, 32",,-19.88823221,-44.10248097,,,0,,,0,
2593866,RE0001,"Alameda dos Comerciantes, 165",,-19.87527209,-44.04721943,,,0,,,0,
2593867,VA0199,"Alameda dos Jasmins, 60",,-19.88508573,-44.10337112,,,0,,,0,
2593868,RE0002,"Alameda dos Sabiás, 1163",,-19.87497436,-44.04531568,,,0,,,0,
2593869,RE0003,"Alameda dos Sabiás, 219, Cabral",,-19.88175425,-44.04047778,,,0,,,0,
2593870,RE0004,"Alameda dos Sabiás, 456",,-19.8802704,-44.04192016,,,0,,,0,
2593871,RE0005,"Alameda dos Sabiás, 567",,-19.8794917,-44.04294613,,,0,,,0,
2593872,NA0102,"Avenida Tancredo Neves, 255",,-19.84316879,-44.01902856,,,0,,,0,
2593873,RE0006,"Alameda dos Sabiás, s/n (L. O. 769), Cabral",,-19.87722009,-44.04480418,,,0,,,0,
2593874,RE0007,"Alameda dos Sabiás, 935",,-19.87700516,-44.04497441,,,0,,,0,
2593875,VA0005,"Alameda Flor de Cactos, 42 (PC)",,-19.86885762,-44.08572841,,,0,,,0,
2593878,SE0001,"Rua Adutora Várzea das Flores, 420 (L. O. COPASA)",,-19.93118234,-44.09358816,,,0,,,0,
2593882,EL0001,"Avenida Água Branca, 331",,-19.92510837,-44.03431654,,,0,,,0,
2593883,EL0002,"Avenida Água Branca, 451",,-19.9260452,-44.03451962,,,0,,,0,
2593884,EL0003,"Avenida Água Branca, 652",,-19.92738406,-44.03493942,,,0,,,0,
2593885,EL0004,"Avenida Água Branca, 647",,-19.9273141,-44.03482091,,,0,,,0,
2593886,EL0005,"Avenida Água Branca, s/n (L. O. Supermercado)",,-19.92917816,-44.03554272,,,0,,,0,
2593887,IN0003,"Avenida Alvarenga Peixoto, 218",,-19.96290766,-44.03729029,,,0,,,0,
2593888,IN0004,"Avenida Alvarenga Peixoto, 221",,-19.96289991,-44.03712516,,,0,,,0,
2593889,IN0005,"Avenida Alvarenga Peixoto, 408",,-19.96500727,-44.03758357,,,0,,,0,
2593890,IN0006,"Avenida Alvarenga Peixoto, 521",,-19.9656526,-44.03751233,,,0,,,0,
2593891,NA0001,"Avenida Antônio Francisco Lisboa, s/n (L. O. 3190)",,-19.86331447,-44.01883165,,,0,,,0,
2593892,NA0002,"Avenida Antônio Francisco Lisboa, 3190, Chácara Confisco",,-19.86315466,-44.01900841,,,0,,,0,
2593893,RE0008,"Avenida Antônio José da Rocha, 218A",,-19.88573066,-44.0328709,,,0,,,0,
2593894,RE0009,"Avenida Antônio José da Rocha, 432",,-19.88521419,-44.03069678,,,0,,,0,
2593895,RE0010,"Avenida Antônio José da Rocha, 44 (Restaurante Popular Ressaca), Guanabara",,-19.88593381,-44.03470922,,,0,,,0,
2593902,IN0008,"Avenida Babita Camargos, 1359 (Itambé Rações), Cidade Industrial",,-19.9534568,-44.02605204,,,0,,,0,
2593904,IN0009,"Avenida Babita Camargos, 1435 (Hyundai)",,-19.95052925,-44.02584714,,,0,,,0,
2593905,IN0010,"Avenida Babita Camargos, 3341 (L. O. Leroy Merlin)",,-19.94683887,-44.02556165,,,0,,,0,
2593906,IN0011,"Avenida Babita Camargos, 1920 (Leroy Merlin)",,-19.94623705,-44.02524283,,,0,,,0,
2593907,IN0012,"Avenida Babita Camargos, 265, Jardim Industrial",,-19.96044096,-44.02655557,,,0,,,0,
2593908,IN0013,"Avenida Babita Camargos, 13171 (L. O. Viação Cometa),  Jardim Industrial",,-19.95725471,-44.02631749,,,0,,,0,
2593909,IN0014,"Avenida Babita Camargos, 746 (Viação Cometa),",,-19.95724303,-44.02605678,,,0,,,0,
2593912,SE0339,Avenida Chê Guevara 220,,-19.89657509,-44.08071095,,,0,,,0,
2593914,IN0015,"Rodovia Fernão Dias (BR-381), s/n - km 478.8",,-19.96360524,-44.04208165,,,0,,,0,
2593915,IN0016,"Rodovia Fernão Dias (BR-381), s/n - km 479.2 (Toshiba)",,-19.96441707,-44.0461532,,,0,,,0,
2593916,IN0017,"Rodovia Fernão Dias (BR-381), s/n - km 479.5",,-19.96298364,-44.04930124,,,0,,,0,
2593917,IN0018,"Rodovia Fernão Dias (BR-381), 3950 - km 479.9 (Bama), Riacho das Pedras",,-19.96136387,-44.05153937,,,0,,,0,
2593918,IN0019,"Avenida Cardeal Eugênio Pacelli (BR-381), s/n",,-19.95887831,-44.03267828,,,0,,,0,
2593920,RI0001,"Rodovia Fernão Dias (BR-381), s/n - km 479.6",,-19.96240554,-44.04933142,,,0,,,0,
2593921,IN0021,"Avenida Cardeal Eugênio Pacelli, 1031 (Santander)",,-19.95288912,-44.01908951,,,0,,,0,
2593923,RI0002,"Avenida Coronel Jove Soares Nogueira, 1425",,-19.96029276,-44.04550348,,,0,,,0,
2593924,RI0003,"Avenida Coronel Jove Soares Nogueira, 312",,-19.95952028,-44.03681646,,,0,,,0,
2593925,RI0004,"Avenida Coronel Jove Soares Nogueira, 621",,-19.95992743,-44.03978317,,,0,,,0,
2593926,RI0005,"Avenida Coronel Jove Soares Nogueira, 955",,-19.96017529,-44.04335542,,,0,,,0,
2593927,RI0006,"Viaduto Avenida Centauro, s/n (L. O. Carretão Trevo)",,-19.95787154,-44.06514883,,,0,,,0,
2593928,RI0007,"Avenida Centauro, 234",,-19.96145768,-44.06402101,,,0,,,0,
2593931,IN0022,"Avenida Coronel Benjamim Guimarães, 3109",,-19.97207882,-44.03166702,,,0,,,0,
2593932,IN0023,"Avenida Coronel Benjamim Guimarães, 1706",,-19.97014341,-44.03011514,,,0,,,0,
2593933,IN0024,"Avenida Coronel Benjamim Guimarães, 1780",,-19.9687217,-44.0289871,,,0,,,0,
2593934,IN0025,"Avenida Coronel Benjamin Guimaraes, 1950",,-19.96724408,-44.0278171,,,0,,,0,
2593935,IN0026,"Avenida Coronel Benjamim Guimarães, 1963",,-19.96714442,-44.02787758,,,0,,,0,
2593936,IN0027,"Avenida Coronel Benjamim Guimarães, 286",,-19.97827187,-44.03888077,,,0,,,0,
2593937,IN0028,"Avenida Coronel Benjamim Guimarães, 50, Industrial",,-19.97963263,-44.04073169,,,0,,,0,
2593938,IN0029,"Avenida Coronel Benjamim Guimarães, 639",,-19.97665219,-44.03707535,,,0,,,0,
2593939,IN0030,"Avenida Coronel Benjamim Guimarães, 622",,-19.97628914,-44.03643935,,,0,,,0,
2593941,IN0031,"Avenida Coronel Benjamim Guimarães, 803",,-19.97513324,-44.03519634,,,0,,,0,
2593942,IN0182,"Avenida Coronel Benjamim Guimarães, 840",,-19.97482456,-44.03464031,,,0,,,0,
2593943,IN0032,"Avenida Coronel Benjamim Guimarães, 96",,-19.97942037,-44.04028855,,,0,,,0,
2593944,IN0033,"Avenida Coronel Benjamim Guimarães, 990",,-19.97414936,-44.03380688,,,0,,,0,
2593945,RI0008,"Avenida Cristal, 104",,-19.96127331,-44.05835918,,,0,,,0,
2593946,RI0009,"Avenida Cristal, 241",,-19.96160852,-44.05962171,,,0,,,0,
2593947,RI0010,"Avenida Cristal, 252",,-19.96142854,-44.05989788,,,0,,,0,
2593948,RI0011,"Avenida Cristal, 35",,-19.96138929,-44.05759245,,,0,,,0,
2593949,RI0012,"Avenida Cristal, 517, Jardim Riacho das Pedras",,-19.96196277,-44.06304214,,,0,,,0,
2593950,RI0013,"Avenida Cristal, 564",,-19.96174659,-44.0630479,,,0,,,0,
2593951,VA0006,"Rua Bartira, 880",,-19.85220861,-44.1461302,,,0,,,0,
2593952,RE0157,"Avenida das Américas, 1280",,-19.8878165,-44.04877845,,,0,,,0,
2593953,RE0012,"Avenida das Américas, 166 (Igreja Assemb. de Deus), São Sebastião",,-19.88802591,-44.05212953,,,0,,,0,
2593954,RE0013,"Avenida das Américas, s/n (L. O. n° 261 (Próximo à Churrascaria e Pizzaria Gauchinho))",,-19.88633714,-44.04028495,,,0,,,0,
2593955,RE0014,"Avenida das Américas, 25",,-19.88548784,-44.03631155,,,0,,,0,
2593956,RE0015,"Avenida das Américas, 241",,-19.8865465,-44.04025069,,,0,,,0,
2593957,RE0016,"Avenida das Américas, 34, Morro do Confisco",,-19.88533941,-44.03620622,,,0,,,0,
2593958,RE0017,"Avenida das Américas, 561",,-19.88697558,-44.04315032,,,0,,,0,
2593959,RE0018,"Avenida das Américas, 797",,-19.88733941,-44.0456211,,,0,,,0,
2593960,RE0019,"Avenida das Américas, 902",,-19.88733627,-44.04641066,,,0,,,0,
2593961,EL0008,"Avenida das Bandeiras, 277 (Praça das Bandeiras)",,-19.92850967,-44.037955,,,0,,,0,
2593962,RE0020,"Avenida das Bandeiras, 40",,-19.89409529,-44.03372297,,,0,,,0,
2593963,RE0021,"Avenida das Bandeiras, 45",,-19.89401235,-44.03397891,,,0,,,0,
2593966,EL0009,"Avenida das Nascentes, s/n (L. O. 250)",,-19.9196967,-44.05360059,,,0,,,0,
2593967,PE0001,"Avenida das Tulipas, 225",,-19.91598836,-44.12512756,,,0,,,0,
2593968,PE0165,"Avenida das Tulipas, s/n",,-19.91453358,-44.12521814,,,0,,,0,
2593969,PE0003,"Avenida das Tulipas, 838",,-19.92087048,-44.12809561,,,0,,,0,
2593970,PE0005,"Avenida das Tulipas, 841",,-19.92090122,-44.12797153,,,0,,,0,
2593972,PE0129,"Avenida Diamante, s/n",,-19.92378432,-44.1309201,,,0,,,0,
2593973,PE0007,"Rua Jatobá, nº537 (PC)",,-19.92537422,-44.13576141,,,0,,,0,
2593974,PE0006,"Avenida Diamante, 281",,-19.92102243,-44.129799,,,0,,,0,
2593975,EL0010,"Avenida Dois, 146",,-19.93024853,-44.02604415,,,0,,,0,
2593980,VA0008,"Avenida dos Teclados, 126",,-19.89361651,-44.12331793,,,0,,,0,
2593981,VA0009,"Rua dos Teclados, s/n (L. O. 527)",,-19.89570275,-44.12462154,,,0,,,0,
2593982,VA0011,"Avenida dos Trompetes, s/n",,-19.90332071,-44.11530066,,,0,,,0,
2593983,VA0245,"Avenida dos Trompetes, 12",,-19.89999044,-44.11716217,,,0,,,0,
2593984,PE0009,"Avenida dos Trompetes, s/n (L. O. 1)",,-19.90331837,-44.11548793,,,0,,,0,
2593985,VA0244,"Avenida dos Trompetes, 327, Estâncias Imperiais",,-19.90003269,-44.11703012,,,0,,,0,
2593986,VA0010,"Avenida dos Trompetes, s/n (nº86 L.O), Estâncias Imperiais",,-19.89733382,-44.11819801,,,0,,,0,
2593989,IN0034,"Avenida Doutor Antonio Chagas Diniz, 1033",,-19.95321874,-44.03066189,,,0,,,0,
2593991,IN0035,"Avenida Doutor Antonio Chagas Diniz, 1295",,-19.95196767,-44.03264975,,,0,,,0,
2593992,IN0036,"Avenida Doutor Antonio Chagas Diniz, 2250",,-19.95447511,-44.02832003,,,0,,,0,
2593993,EL0013,"Avenida Doutor Cincinato Cajado Braga, 225 (Quadra de Futebol)",,-19.9353933,-44.05266473,,,0,,,0,
2593994,EL0014,"Avenida Doutor Cincinato Cajado Braga, 238 (L. O. Quadra de Futebol)",,-19.93548297,-44.05254793,,,0,,,0,
2593995,EL0015,"Avenida Doutor Cincinato Cajado Braga, 451 (Pç Nossa Sr.ª da Conceição)",,-19.93345119,-44.05298624,,,0,,,0,
2593996,EL0016,"Avenida Doutor Cincinato Cajado Braga, 456 (Pç Nossa Sr.ª da Conceição)",,-19.93333028,-44.05286913,,,0,,,0,
2593998,SE0004,"Avenida Dúlce Geralda Diniz, 11",,-19.89000041,-44.0864785,,,0,,,0,
2593999,SE0005,"Avenida Dúlce Geralda Diniz, próximo 11",,-19.89011895,-44.08655226,,,0,,,0,
2594000,SE0006,"Avenida Dúlce Geralda Diniz, 456",,-19.88619366,-44.08746445,,,0,,,0,
2594001,VA0012,"Rua Vicente Ribeiro de Paula, 293",,-19.88252314,-44.08504498,,,0,,,0,
2594002,SE0007,"Avenida Dúlce Geralda Diniz, próximo 620",,-19.88774502,-44.08750958,,,0,,,0,
2594003,PE0112,"Avenida Tropical, 789",,-19.91746535,-44.11919109,,,0,,,0,
2594004,PE0010,"Avenida Durval Alves de Faria, 1941",,-19.91904909,-44.11767661,,,0,,,0,
2594005,PE0011,"Avenida Durval Alves de Faria, s/n",,-19.92191967,-44.11778425,,,0,,,0,
2594006,PE0012,"Avenida Durval Alves de Faria, 2114",,-19.92193894,-44.11762859,,,0,,,0,
2594007,PE0013,"Avenida Durval Alves de Faria, 196 (PC)",,-19.92304711,-44.1168169,,,0,,,0,
2594008,PE0014,"Avenida Durval Alves de Faria, 2584",,-19.92438706,-44.11636905,,,0,,,0,
2594009,PE0140,"Avenida Durval Alves de Faria, 700",,-19.90962324,-44.11209226,,,0,,,0,
2594010,PE0016,"Avenida Durval Alves de Faria, s/n (L. O. 1507), Tropical",,-19.91266742,-44.11272163,,,0,,,0,
2594011,RI0014,"Avenida Francisco Firmo de Matos, 1190",,-19.94645557,-44.05102395,,,0,,,0,
2594013,RE0022,"Avenida Fernão Dias, 1103",,-19.89720343,-44.03039515,,,0,,,0,
2594014,RE0023,"Avenida Fernão Dias, s/n (L. O. 1119)",,-19.89738272,-44.03032311,,,0,,,0,
2594015,RE0024,"Avenida Fernão Dias, 636 (L. O. Posto de Gasolina)",,-19.89467073,-44.03379441,,,0,,,0,
2594016,RE0200,"Avenida Fernão Dias, s/n (L. O. 798)",,-19.89562311,-44.03242215,,,0,,,0,
2594017,RE0025,"Avenida Fernão Dias, 840",,-19.89594244,-44.03218627,,,0,,,0,
2594018,RI0016,"Avenida Francisco Firmo de Matos, 1455",,-19.95124961,-44.05304086,,,0,,,0,
2594020,RI0018,"Avenida Francisco Firmo de Matos, 1075",,-19.94581494,-44.04824318,,,0,,,0,
2594021,RI0019,"Avenida Francisco Firmo de Matos, 1370",,-19.94547305,-44.04849515,,,0,,,0,
2594022,RI0020,"Avenida Francisco Firmo de Matos, s/n",,-19.9483198,-44.04384303,,,0,,,0,
2594023,EL0017,"Avenida Francisco Firmo de Matos, 1855",,-19.94631541,-44.05126028,,,0,,,0,
2594024,RI0021,"Avenida Francisco Firmo de Matos, s/n (Ginásio Califórnia)",,-19.95003604,-44.04035589,,,0,,,0,
2594025,RI0022,"Avenida Francisco Firmo de Matos, 711",,-19.94670826,-44.04563091,,,0,,,0,
2594026,RI0023,"Avenida Frei Henrique Soares, 199",,-19.95726015,-44.03887424,,,0,,,0,
2594027,RI0024,"Avenida Frei Henrique Soares, 252",,-19.95758177,-44.03929294,,,0,,,0,
2594028,RI0025,"Avenida Frei Henrique Soares, 310 ( E. E. Ruy Pimenta)",,-19.95928759,-44.04034684,,,0,,,0,
2594029,RI0026,"Avenida Frei Henrique Soares, 431 (L. O. E. E. Ruy Pimenta)",,-19.95905606,-44.04000425,,,0,,,0,
2594030,RI0027,"Avenida Frei Henrique Soares, 86",,-19.95630947,-44.03851238,,,0,,,0,
2594031,IN0037,"Avenida General David Sarnoff, 1515 (Magotteaux)",,-19.94818779,-44.02669708,,,0,,,0,
2594032,IN0038,"Avenida General David Sarnoff, 1416 (L. O. Magotteaux)",,-19.94794044,-44.02662662,,,0,,,0,
2594033,IN0039,"Avenida General David Sarnoff, 1945",,-19.95386021,-44.01815428,,,0,,,0,
2594034,IN0040,"Avenida General David Sarnoff, 3172, Industrial Itaú",,-19.96073811,-44.03302178,,,0,,,0,
2594035,IN0041,"Avenida General David Sarnoff, 3450, Industrial Ituaú",,-19.96210891,-44.03231252,,,0,,,0,
2594036,IN0042,"Avenida General David Sarnoff, s/n (L. O. 3906)",,-19.96354831,-44.02935228,,,0,,,0,
2594037,IN0043,"Avenida General David Sarnoff, 3826",,-19.96375358,-44.0297334,,,0,,,0,
2594038,IN0250,"Avenida General David Sarnoff, s/n (L. O. 4272), Cidade Industrial",,-19.96374538,-44.02594695,,,0,,,0,
2594040,IN0044,"Avenida General David Sarnoff, 4352 (E. E. Dep. Cláudio Pinheiro)",,-19.96411759,-44.02403678,,,0,,,0,
2594041,IN0045,"Avenida General David Sarnoff, 4996 (L. O. Mart Minas)",,-19.96349957,-44.02128854,,,0,,,0,
2594042,IN0046,"Avenida General David Sarnoff, 5070",,-19.96194445,-44.02017465,,,0,,,0,
2594043,IN0047,"Avenida General David Sarnoff, 5091",,-19.96057175,-44.01950801,,,0,,,0,
2594044,IN0242,"Avenida General David Sarnoff, 4840 (Telha Norte)",,-19.94897828,-44.02024879,,,0,,,0,
2594045,IN0049,"Avenida General David Sarnoff, 551 (Belgo I)",,-19.9489905,-44.02064333,,,0,,,0,
2594046,IN0050,"Avenida General David Sarnoff, 5020",,-19.9594777,-44.01841893,,,0,,,0,
2594047,IN0051,"Avenida General David Sarnoff, s/n (L. O. ArcelorMittal)",,-19.95777032,-44.01751909,,,0,,,0,
2594048,IN0052,"Avenida General David Sarnoff, 6985 (Belgo II)",,-19.95136219,-44.01935265,,,0,,,0,
2594049,IN0053,"Avenida General David Sarnoff, 6986 (GE)",,-19.95134146,-44.01908591,,,0,,,0,
2594050,IN0054,"Avenida General David Sarnoff, s/n",,-19.95396042,-44.01774234,,,0,,,0,
2594051,,"Avenida Gávea, 92",,-19.97596776,-44.06492188,,,0,,,0,
2594052,RE0026,"Avenida Geraldo Rocha, s/n (CD Supermercados BH)",,-19.86594134,-44.03371058,,,0,,,0,
2594053,RE0027,"Avenida Geraldo Rocha, 1300",,-19.86576182,-44.03417184,,,0,,,0,
2594054,RE0028,"Avenida Geraldo Rocha, 200",,-19.87347729,-44.02723587,,,0,,,0,
2594055,RE0029,"Avenida Geraldo Rocha, s/n (CD Supermecados BH)",,-19.87205245,-44.03097171,,,0,,,0,
2594056,RE0030,"Avenida Geraldo Rocha, s/n (L. O. CD Supermercados BH)",,-19.87225595,-44.03095171,,,0,,,0,
2594057,RE0031,"Avenida Geraldo Rocha, 800 (AETHRA)",,-19.8706528,-44.03193393,,,0,,,0,
2594058,EL0018,"Avenida Helena de Vasconcelos Costa, 204",,-19.91474816,-44.05361788,,,0,,,0,
2594061,EL0019,"Avenida Helena de Vasconcelos Costa, 6768",,-19.90746596,-44.04885641,,,0,,,0,
2594062,EL0270,"Avenida Helena de Vasconcelos Costa, 711",,-19.91267336,-44.05187307,,,0,,,0,
2594063,IN0055,"Avenida Ipiranga, 227",,-19.96703311,-44.04993288,,,0,,,0,
2594065,IN0056,"Avenida Ipiranga, 202",,-19.96574894,-44.05181312,,,0,,,0,
2594066,IN0057,"Avenida Ipiranga, 85",,-19.9673102,-44.04970849,,,0,,,0,
2594067,PE0017,"Avenida Irmã Benigna Vitina de Jesus, 625",,-19.92145197,-44.11031049,,,0,,,0,
2594068,PE0018,"Avenida Irmã Benigna Vitina de Jesus, 613",,-19.92122672,-44.11053597,,,0,,,0,
2594069,VA0255,"Avenida Jequitibá, 120",,-19.81277504,-44.14436504,,,0,,,0,
2594070,EL0021,"Avenida João César de Oliveira, 1520 (Itaú)",,-19.94150062,-44.04231976,,,0,,,0,
2594071,EL0022,"Avenida João César de Oliveira, 168",,-19.94608953,-44.03128393,,,0,,,0,
2594072,EL0023,"Avenida João César de Oliveira, 2767 (Bradesco)",,-19.93984511,-44.0449199,,,0,,,0,
2594073,EL0024,"Avenida João César de Oliveira, 2415 (FUNEC)",,-19.94173475,-44.04239057,,,0,,,0,
2594074,EL0025,"Avenida João César de Oliveira, 2792 (Drogaria)",,-19.93843977,-44.04869654,,,0,,,0,
2594076,EL0027,"Avenida João César de Oliveira, 2999 (Antigo Iria Diniz)",,-19.93904738,-44.04765027,,,0,,,0,
2594077,EL0028,"Avenida João César de Oliveira, 3154 (Pç Paulo Pinheiro Chagas)",,-19.93853595,-44.0535036,,,0,,,0,
2594079,EL0030,"Avenida João César de Oliveira, 3613",,-19.93874716,-44.05292896,,,0,,,0,
2594080,EL0031,"Avenida João César de Oliveira, 3782 (Btl. Bombeiros)",,-19.93641899,-44.05968218,,,0,,,0,
2594081,EL0032,"Avenida João César de Oliveira, 4035",,-19.93881908,-44.05689845,,,0,,,0,
2594082,EL0033,"Avenida João César de Oliveira, 3460 (Hotel Amsterdam)",,-19.93862422,-44.05665709,,,0,,,0,
2594083,EL0034,"Avenida João César de Oliveira, 4370 (Prefaco)",,-19.93315395,-44.06358243,,,0,,,0,
2594084,EL0035,"Avenida João César de Oliveira, 4205 (Maxion)",,-19.93101679,-44.06656855,,,0,,,0,
2594085,EL0036,"Avenida João César de Oliveira, s/n (Isomonte)",,-19.93341865,-44.06373154,,,0,,,0,
2594086,EL0037,"Avenida João César de Oliveira, 4644 (Aymoré)",,-19.93097502,-44.06620997,,,0,,,0,
2594087,EL0038,"Avenida João César de Oliveira, 503",,-19.94456733,-44.03327529,,,0,,,0,
2594088,SE0008,"Avenida João César de Oliveira, 5415",,-19.92447882,-44.07257517,,,0,,,0,
2594089,SE0009,"Avenida João César de Oliveira, 5440 (18º Btl. PM), Funcionários",,-19.92504187,-44.07123286,,,0,,,0,
2594090,SE0010,"Avenida João César de Oliveira, 5775",,-19.92371162,-44.07383711,,,0,,,0,
2594091,SE0011,"Avenida João César de Oliveira, 5750",,-19.92329631,-44.0739138,,,0,,,0,
2594092,EL0039,"Avenida João César de Oliveira, 752 (E. E. Francisco Firmo de Matos)",,-19.94335948,-44.03533701,,,0,,,0,
2594093,EL0040,"Avenida João César de Oliveira, 953B",,-19.94265408,-44.03897325,,,0,,,0,
2594094,EL0041,"Avenida João César de Oliveira, 849 (Moto Fest)",,-19.94321692,-44.03649306,,,0,,,0,
2594096,RE0032,"Avenida João Gomes Cardoso, 2819",,-19.91207895,-44.03637343,,,0,,,0,
2594102,RE0035,"Avenida João Gomes Cardoso, s/n, Oitis",,-19.91136293,-44.0364012,,,0,,,0,
2594103,RE0034,"Avenida João Gomes Cardoso, 89",,-19.91427195,-44.03662495,,,0,,,0,
2594104,RE0036,"Avenida João Gomes Cardoso, 236",,-19.90562624,-44.03489529,,,0,,,0,
2594105,NA0003,"Avenida João Soares, s/n (L.O. nº 843), Parque Xangri-Lá",,-19.83321216,-44.02647638,,,0,,,0,
2594106,NA0005,"Avenida João Soares, s/n (L. O. 573)",,-19.83620334,-44.02251078,,,0,,,0,
2594107,NA0005,"Avenida João Soares, 563",,-19.83620968,-44.02263092,,,0,,,0,
2594108,,"Avenida João Soares, s/n (L. O. 1510)",,-19.83729821,-44.02110345,,,0,,,0,
2594111,EL0042,"Avenida José Faria da Rocha, 1117",,-19.9479577,-44.0388328,,,0,,,0,
2594112,EL0043,"Avenida José Faria da Rocha, 1146",,-19.94739169,-44.04001593,,,0,,,0,
2594113,EL0225,"Avenida José Faria da Rocha, 128",,-19.94486928,-44.03372684,,,0,,,0,
2594114,EL0044,"Avenida José Faria da Rocha, 1360",,-19.9462889,-44.04153594,,,0,,,0,
2594116,EL0046,"Avenida José Faria da Rocha, 1550",,-19.94544069,-44.04326907,,,0,,,0,
2594118,EL0048,"Avenida José Faria da Rocha, 1900",,-19.94320543,-44.0455067,,,0,,,0,
2594121,EL0051,"Avenida José Faria da Rocha, 2696 (Feirinha do Eldorado)",,-19.93856901,-44.04558163,,,0,,,0,
2594122,EL0052,"Avenida José Faria da Rocha, 2950 (Pão e Arte)",,-19.93688511,-44.04398024,,,0,,,0,
2594127,EL0057,"Avenida José Faria da Rocha, 370",,-19.94691384,-44.03260336,,,0,,,0,
2594140,EL0064,"Avenida José Faria da Rocha, 5780 (Sentido Cidade Industrial)",,-19.94183247,-44.02991034,,,0,,,0,
2594141,EL0065,"Avenida José Faria da Rocha, 5875 (Funerária Municipal)",,-19.94284659,-44.03102195,,,0,,,0,
2594142,EL0066,"Avenida José Faria da Rocha, 598",,-19.947685,-44.03452436,,,0,,,0,
2594143,EL0067,"Avenida José Faria da Rocha, 5994 (Sentido Bairro)",,-19.94272815,-44.03166588,,,0,,,0,
2594144,EL0068,"Avenida José Faria da Rocha, 6133",,-19.94313438,-44.0334766,,,0,,,0,
2594145,EL0069,"Avenida José Faria da Rocha, 101",,-19.94468297,-44.03373702,,,0,,,0,
2594146,EL0070,"Avenida José Faria da Rocha, 983",,-19.94804076,-44.03752484,,,0,,,0,
2594147,EL0071,"Avenida José Faria da Rocha, 899",,-19.94810739,-44.03677521,,,0,,,0,
2594148,EL0072,"Avenida José Faria da Rocha, 980",,-19.94791042,-44.03855896,,,0,,,0,
2594149,SE0013,"Avenida José Luís da Cunha, 60",,-19.90620631,-44.08116113,,,0,,,0,
2594150,SE0014,"Avenida José Luís da Cunha, 337",,-19.90667241,-44.08155651,,,0,,,0,
2594151,SE0015,"Avenida José Luiz Da Cunha, 497",,-19.90231659,-44.07920742,,,0,,,0,
2594152,SE0016,"Avenida José Luíz da Cunha, oposto 312",,-19.9043358,-44.08027101,,,0,,,0,
2594154,SE0018,"Rua Judith Naves de Lima, 40 (Paróquia Nossa Sr.ª do Carmo)",,-19.91685596,-44.06963228,,,0,,,0,
2594155,SE0019,"Rua Judith Naves de Lima, 432",,-19.92034973,-44.06926441,,,0,,,0,
2594156,SE0020,"Rua Judith Naves de Lima, 671",,-19.92239094,-44.06857227,,,0,,,0,
2594157,SE0021,"Rua Judith Naves de Lima, 794",,-19.92337182,-44.06837897,,,0,,,0,
2594158,IN0192,"Avenida Tereza Cristina, 10250",,-19.9743836,-44.0265204,,,0,,,0,
2594159,IN0059,"Avenida Juscelino Kubitscheck, 296",,-19.97285686,-44.02932293,,,0,,,0,
2594160,IN0060,"Avenida Juscelino Kubitscheck, 325",,-19.97305067,-44.02929571,,,0,,,0,
2594161,IN0061,"Avenida Juscelino Kubitscheck, 512",,-19.97175903,-44.0309643,,,0,,,0,
2594162,IN0062,"Avenida Juscelino Kubitscheck, 65",,-19.97401923,-44.02789637,,,0,,,0,
2594163,IN0063,"Avenida Juscelino Kubitscheck, 707",,-19.97105043,-44.03212766,,,0,,,0,
2594164,IN0064,"Avenida Juscelino Kubitscheck, 925",,-19.96960632,-44.03414112,,,0,,,0,
2594165,EL0073,"Avenida Marechal Castelo Branco, 294 (L. O. Sublime)",,-19.9445345,-44.02808489,,,0,,,0,
2594166,IN0065,"Avenida Marechal Castelo Branco, 675 (Direcional)",,-19.94726764,-44.02978515,,,0,,,0,
2594167,IN0066,"Avenida Maria da Glória, 100",,-19.9675687,-44.04024415,,,0,,,0,
2594168,IN0067,"Avenida Maria da Glória, 95",,-19.96758999,-44.04012271,,,0,,,0,
2594171,RI0029,"Avenida Marte, 645",,-19.97259399,-44.05971554,,,0,,,0,
2594172,RI0030,"Avenida Marte, 748",,-19.97272949,-44.05832308,,,0,,,0,
2594173,RI0031,"Avenida Marte, 75",,-19.969363,-44.060933,,,0,,,0,
2594174,RI0032,"Avenida Marte, 785",,-19.97258745,-44.05803208,,,0,,,0,
2594185,,"Avenida Olímpio García, 1200 (Itamaraty Automóveis)",,-19.95112237,-44.03988591,,,0,,,0,
2594186,RI0033,Avenida Olímpio García s/n (Posto de Gasolina Ipiranga - L.O. 1200 (Itamaraty Automóveis),,-19.95091641,-44.03960558,,,0,,,0,
2594188,EL0076,"Avenida Olímpio García, s/n (Pç da Glória)",,-19.94389926,-44.03920759,,,0,,,0,
2594189,EL0077,"Avenida Olímpio García, 690 (Avenida Norte e Sul)",,-19.94696498,-44.0393612,,,0,,,0,
2594190,EL0078,"Avenida Olímpio García, s/n (Avenida Norte e Sul)",,-19.94679494,-44.03923228,,,0,,,0,
2594191,EL0079,"Avenida José Faria da Rocha, 1256",,-19.94159813,-44.0393695,,,0,,,0,
2594192,EL0080,"Avenida Olímpio García, s/n (Avenida Norte e Sul)",,-19.94900242,-44.03939203,,,0,,,0,
2594193,SE0022,"Avenida Padre Joaquim Martins, 1208",,-19.89415476,-44.0850061,,,0,,,0,
2594194,SE0023,"Avenida Padre Joaquim Martins, 1331",,-19.89330683,-44.08560498,,,0,,,0,
2594195,SE0024,"Avenida Padre Joaquim Martins, próximo 1443",,-19.89192525,-44.08598296,,,0,,,0,
2594196,SE0025,"Avenida Padre Joaquim Martins, 153 (L. O. Proq. Nossa Sr.ª do Rosário)",,-19.90280474,-44.08066515,,,0,,,0,
2594197,SE0026,"Avenida Padre Joaquim Martins, oposto 240",,-19.89762045,-44.08342781,,,0,,,0,
2594198,SE0027,"Avenida Padre Joaquim Martins, 268",,-19.89750899,-44.08342908,,,0,,,0,
2594199,SE0028,"Avenida Padre Joaquim Martins, 1338",,-19.8932452,-44.08544944,,,0,,,0,
2594200,SE0029,"Avenida Perimetral, 231 (CEMEI Perobas)",,-19.91665433,-44.06287166,,,0,,,0,
2594201,SE0030,"Avenida Perimetral, oposto231",,-19.91663355,-44.06278108,,,0,,,0,
2594206,EL0081,"Avenida Pio XII, 116",,-19.92560179,-44.03211778,,,0,,,0,
2594209,EL0083,"Avenida Pio XII, 863",,-19.92873378,-44.03118831,,,0,,,0,
2594212,IN0068,"Avenida Presidente Antônio Carlos, 20a (Vilma II)",,-19.95171549,-44.0105086,,,0,,,0,
2594213,IN0069,"Avenida Presidente Castelo Branco, 12",,-19.95285168,-44.01044105,,,0,,,0,
2594216,RE0136,"Rua Alvimar Carneiro, 909",,-19.89537952,-44.02490449,,,0,,,0,
2594217,RE0037,"Avenida Princesa Isabel, 218",,-19.87547625,-44.02529514,,,0,,,0,
2594220,RE0039,"Avenida Princesa Isabel, 27",,-19.87718802,-44.0236957,,,0,,,0,
2594221,RE0040,"Avenida Princesa Isabel, 303, São Joaquim",,-19.87928168,-44.02174964,,,0,,,0,
2594222,VA0014,"Avenida Principal, 570",,-19.81569854,-44.14732837,,,0,,,0,
2594223,RI0034,"Avenida Régulus, 450",,-19.96875988,-44.06034749,,,0,,,0,
2594224,RI0035,"Avenida Régulus, 445",,-19.96888639,-44.06047883,,,0,,,0,
2594225,RI0036,"Avenida Régulus, 85",,-19.97092994,-44.05669581,,,0,,,0,
2594227,VA0015,Avenida Retiro dos Bandeirantes 107,,-19.83878792,-44.15345492,,,0,,,0,
2594228,VA0016,"Avenida Retiro dos Imigrantes, 138",,-19.84195818,-44.14420507,,,0,,,0,
2594229,VA0017,"Avenida Retiro dos Imigrantes, 911",,-19.84204572,-44.14410756,,,0,,,0,
2594230,VA0018,"Avenida Retiro dos Imigrantes, 583",,-19.83873981,-44.14763702,,,0,,,0,
2594231,VA0019,"Avenida Retiro dos Imigrantes, 160 (L. O. UPA Vargem das Flores)",,-19.83754734,-44.14792495,,,0,,,0,
2594232,VA0020,"Avenida Retiro dos Imigrantes, 45 (L. O. Supermercados BH)",,-19.8359924,-44.14776724,,,0,,,0,
2594233,VA0021,"Avenida Retiro dos Imigrantes, 925",,-19.83561923,-44.14789501,,,0,,,0,
2594234,RI0037,"Avenida Riacho das Pedras, 1800 (Mart Minas)",,-19.95881736,-44.05936189,,,0,,,0,
2594235,RI0038,"Avenida Rio Negro, 1136, Riacho das Pedras",,-19.95603207,-44.05195545,,,0,,,0,
2594238,RI0039,"Avenida Río Negro, 962",,-19.955736,-44.05198017,,,0,,,0,
2594239,RI0040,"Avenida Rio São Francisco, 997",,-19.94566069,-44.06034621,,,0,,,0,
2594240,RI0041,"Avenida Rio São Francisco, 1281",,-19.94351839,-44.0607662,,,0,,,0,
2594241,RI0042,"Avenida Rio São Francisco, 373 (E. E. Mário de Elias Carvalho)",,-19.94826969,-44.05532753,,,0,,,0,
2594242,RI0043,"Avenida Rio São Francisco, 581",,-19.94828593,-44.05771333,,,0,,,0,
2594243,VA0230,"Rua Sema, 789",,-19.85714727,-44.14404291,,,0,,,0,
2594244,VA0023,"Via de Acesso Icaivera, s/n",,-19.85319787,-44.14578877,,,0,,,0,
2594245,VA0024,"Via de Acesso Icaivera, 62",,-19.85329656,-44.14591606,,,0,,,0,
2594246,EL0084,"Avenida Sete, 15",,-19.93556214,-44.03182091,,,0,,,0,
2594247,RE0041,"Avenida Severino Ballesteros, 4505-5703",,-19.89609531,-44.0421202,,,0,,,0,
2594248,RE0042,"Avenida Severino Ballesteros,  1019",,-19.8957833,-44.04218794,,,0,,,0,
2594249,EL0085,"Avenida Sócrates Mariani Bitencourt, 55 (PC)",,-19.94143554,-44.06049584,,,0,,,0,
2594250,NA0138,"Avenida Tancredo Neves, s/n (L. O. 343)",,-19.85089868,-44.02182151,,,0,,,0,
2594251,NA0132,"Avenida Tancredo Neves, s/n (L. O. 490), Pedra Azul",,-19.85268151,-44.02248498,,,0,,,0,
2594252,NA0009,"Avenida Tancredo Neves, 142",,-19.84308106,-44.01909222,,,0,,,0,
2594254,NA0010,"Avenida Tancredo Neves, 343",,-19.85085311,-44.02202043,,,0,,,0,
2594255,EL0086,"Avenida Teleférico, 162 (L. O. Quadra de Areia)",,-19.93075413,-44.03042285,,,0,,,0,
2594256,EL0087,"Avenida Teleférico, 475",,-19.93317665,-44.02899969,,,0,,,0,
2594257,EL0088,"Avenida Teleférico, 635",,-19.93471359,-44.02841765,,,0,,,0,
2594258,IN0070,"Avenida Tereza Cristina, 10024",,-19.97115111,-44.02038138,,,0,,,0,
2594259,IN0071,"Avenida Tereza Cristina, 21",,-19.9704418,-44.01628465,,,0,,,0,
2594260,IN0072,"Avenida Tereza Cristina, 9908",,-19.97028459,-44.01849992,,,0,,,0,
2594261,IN0073,"Avenida Tereza Cristina, 9921",,-19.97045033,-44.01834508,,,0,,,0,
2594262,IN0074,"Avenida Tereza Cristina, 10062",,-19.97170605,-44.0219734,,,0,,,0,
2594263,IN0075,"Avenida Tereza Cristina, 10103",,-19.97193716,-44.02201658,,,0,,,0,
2594264,IN0076,"Avenida Tereza Cristina, 10235",,-19.97446914,-44.0262261,,,0,,,0,
2594265,IN0231,"Avenida Tito Fulgêncio, 306",,-19.95930821,-44.01623988,,,0,,,0,
2594266,IN0078,"Avenida Tito Fulgêncio, 353 (L. O. Villefort)",,-19.95977535,-44.01606068,,,0,,,0,
2594268,IN0079,"Avenida Gal. David Sarnoff, 4123",,-19.95580584,-44.0170552,,,0,,,0,
2594269,IN0080,"Avenida Tito Fulgêncio, 604, Jardim Industrial",,-19.96201378,-44.01620485,,,0,,,0,
2594270,IN0081,"Avenida Tito Fulgêncio, 65 (L. O. Previdência Social)",,-19.95709119,-44.01620597,,,0,,,0,
2594271,IN0082,"Avenida Tito Fulgêncio, 860",,-19.96440032,-44.01593925,,,0,,,0,
2594272,IN0083,"Rua Tito Fulgêncio, 905 (L. O. Posto de Gasolina), Jardim Industrial",,-19.96495004,-44.01551468,,,0,,,0,
2594273,PE0019,"Avenida Irmã Benigna Vitina de Jesus, 1080",,-19.91947587,-44.11435207,,,0,,,0,
2594274,PE0020,"Avenida Tropical, 1186, Petrolândia",,-19.92112017,-44.12225517,,,0,,,0,
2594275,PE0021,"Avenida Tropical, 1360, Vila Beija-Flor",,-19.9230606,-44.12343443,,,0,,,0,
2594276,PE0022,"Avenida Tropical, 2923",,-19.92640737,-44.12194908,,,0,,,0,
2594277,PE0023,"Avenida Tropical, 1783",,-19.91783402,-44.12059265,,,0,,,0,
2594278,PE0024,"Avenida Tropical, 1972",,-19.91975594,-44.12122003,,,0,,,0,
2594279,PE0025,"Avenida Tropical, 1242",,-19.9227652,-44.12337325,,,0,,,0,
2594280,PE0026,"Avenida Tropical, 1018 (Posto de Saúde Tropical)",,-19.9178824,-44.12076661,,,0,,,0,
2594281,PE0027,"Avenida Tropical, 1946",,-19.91962246,-44.12122267,,,0,,,0,
2594282,PE0028,"Avenida Irmã Benigna Vitina de Jesus, 640",,-19.92071413,-44.11145052,,,0,,,0,
2594284,PE0030,"Avenida Tropical, 2143",,-19.92118514,-44.12216821,,,0,,,0,
2594285,PE0031,"Avenida Tropical, 784",,-19.91738666,-44.11913499,,,0,,,0,
2594286,PE0032,"Avenida Irmã Benigna Vitina de Jesus, 898",,-19.92002393,-44.11263813,,,0,,,0,
2594287,PE0033,"Avenida Tropical, 1328, Tropical",,-19.91870579,-44.11660873,,,0,,,0,
2594288,RE0043,"Avenida Um, s/n (L. O. 681)",,-19.90765004,-44.0401091,,,0,,,0,
2594289,RE0044,"Avenida Um, 681",,-19.90770808,-44.0400214,,,0,,,0,
2594290,SE0031,"Avenida Virgínia Graciosi Pacelli, 216",,-19.90822223,-44.07535913,,,0,,,0,
2594291,SE0032,"Avenida Virgínia Graciosi Pacelli, oposto 250, Alvorada",,-19.908443,-44.0754204,,,0,,,0,
2594292,SE0033,"Avenida Virgínia Graciosi Pacelli, 3000",,-19.90654162,-44.07217727,,,0,,,0,
2594293,SE0034,"Avenida Virgínia Graciosi Pacelli, 505",,-19.91040023,-44.077021,,,0,,,0,
2594294,SE0035,"Avenida Virgínia Graciosi Pacelli, s/n, (L.O 2760), Parque Maracanã",,-19.90677843,-44.07382896,,,0,,,0,
2594295,SE0036,"Avenida Virgínia Graciosi Pacelli, 2867",,-19.90654917,-44.0724952,,,0,,,0,
2594296,RE0045,"Rua das Contendas, s/n (PC)",,-19.86015758,-44.05324797,,,0,,,0,
2594297,RE0046,"Avenida Wilson Tavares Ribeiro, 1045 (Grupo Transimão)",,-19.86770156,-44.04882027,,,0,,,0,
2594298,RE0047,"Avenida Wilson Tavares Ribeiro, s/n (L. O. Grupo Transimão)",,-19.86803791,-44.04860679,,,0,,,0,
2594299,RE0048,"Avenida Wilson Tavares Ribeiro, 1401 (L. O. SINDI)",,-19.86550556,-44.04883051,,,0,,,0,
2594301,RE0049,"Avenida Wilson Tavares Ribeiro, 419",,-19.87417386,-44.05056752,,,0,,,0,
2594302,RE0050,"Avenida Wilson Tavares Ribeiro, 465",,-19.87299392,-44.05012121,,,0,,,0,
2594303,RE0176,"Avenida Wilson Tavares Ribeiro, 600 (Detbonic)",,-19.87131962,-44.04912267,,,0,,,0,
2594304,,"Rua das Contendas, s/n (Forno de Minas)",,-19.86353473,-44.04899624,,,0,,,0,
2594305,RE0052,"Avenida Wilson Tavares Ribeiro, 201",,-19.87569028,-44.05089559,,,0,,,0,
2594306,EL0089,"Avenida João César de Oliveira, 1275 (Big Shopping)",,-19.94294456,-44.04001194,,,0,,,0,
2594307,RE0053,"BR-040, 846 - km 526.2 (CD Megafort)",,-19.91307412,-44.04048873,,,0,,,0,
2594308,RE0054,"BR-040, s/n - km 528.5",,-19.90831661,-44.04453521,,,0,,,0,
2594309,VA0151,"Rua Estância do Retiro, 157",,-19.83948197,-44.15095841,,,0,,,0,
2594311,EL0090,"BR-040, s/n - Km 529.3 (CD Epa)",,-19.91288488,-44.04098326,,,0,,,0,
2594312,RE0055,"BR-040, s/n - Km 529,7",,-19.91656588,-44.03955512,,,0,,,0,
2594313,,"BR-040, s/n - Km 529.9",,-19.91811689,-44.0394607,,,0,,,0,
2594314,RE0056,"BR-040, s/n, KM 526.4 (CEASA)",,-19.89467682,-44.04970449,,,0,,,0,
2594315,SE0037,"Rua Miguel de Souza Arruda, oposto 50",,-19.91069211,-44.0779924,,,0,,,0,
2594320,EL0182,"Rua Manoel Pereira Mendes, 274 (L. O. CD Cofermeta)",,-19.93681083,-44.07711281,,,0,,,0,
2594321,VA0025,"Estrada Chicó Mendes, 402",,-19.89042187,-44.11173287,,,0,,,0,
2594322,VA0026,"Estrada Chicó Mendes, s/n (nº402 L.O)",,-19.89043385,-44.11161963,,,0,,,0,
2594323,VA0027,"Estrada Chicó Mendes, s/n (nº671 L.O)",,-19.89050074,-44.11399212,,,0,,,0,
2594324,VA0188,"Estrada Chicó Mendes, 910",,-19.89123459,-44.12143083,,,0,,,0,
2594325,VA0029,"Estrada Chicó Mendes, 691",,-19.89033588,-44.11418617,,,0,,,0,
2594326,VA0211,"Estrada Chicó Mendes, 780",,-19.88940252,-44.11776844,,,0,,,0,
2594327,VA0031,"Estrada Chicó Mendes, 695",,-19.89115974,-44.12149494,,,0,,,0,
2594328,RI0044,"Praça Marília de Dirceu, 20 (E. M. Heitor Vila-Lobos)",,-19.95469841,-44.03759111,,,0,,,0,
2594330,VA0032,"Estrada Vereador Jose Ferreira (LMG-808), s/n - km 3,  Granja Ouro Branco",,-19.88291494,-44.10158652,,,0,,,0,
2594331,VA0033,"Estrada Vereador Jose Ferreira (LMG-808), s/n - km 3.1",,-19.88203594,-44.10211558,,,0,,,0,
2594335,VA0034,"Estrada Vereador Jose Ferreira (LMG-808), s/n - km 2.6",,-19.88916765,-44.09981859,,,0,,,0,
2594336,VA0154,"Estrada Vereador José Ferreira (LMG-808), s/n - km 8.1",,-19.8487991,-44.14221341,,,0,,,0,
2594337,VA0155,"Estrada Vereador José Ferreira (LMG-808) km 6.6 (Assoc. Crescer), Darcy Ribeiro",,-19.85835321,-44.13157552,,,0,,,0,
2594338,VA0035,"Estrada Vereador José Ferreira (LMG-808), 20 - km 8.7",,-19.84562855,-44.14625366,,,0,,,0,
2594339,VA0036,"Via Acesso Icaivera, s/n (PC)",,-19.84660471,-44.14776007,,,0,,,0,
2594340,VA0037,"Estrada Vereador José Ferreira (LMG-808), 797",,-19.84474038,-44.14782447,,,0,,,0,
2594350,RI0045,"Rua Rio Paraopeba, 1222 (Ginásio Poliesportivo do Riacho),  Riacho das Pedras",,-19.95944927,-44.04836367,,,0,,,0,
2594352,,"Praça Concórdia, s/n",,-19.85869232,-44.01650712,,,0,,,0,
2594353,NA0013,"Praça Estrela Dalva, 130, Estrela Dalva",,-19.86349829,-44.0247335,,,0,,,0,
2594355,RI0046,"Praça Marília de Dirceu, 33 (Praça dos Ciganos)",,-19.95572601,-44.03746893,,,0,,,0,
2594356,EL0094,"Praça Paulo Pinheiro Chagas, 187",,-19.93783108,-44.05196324,,,0,,,0,
2594357,EL0095,"Praça Paulo Pinheiro Chagas, 91",,-19.93813253,-44.05242041,,,0,,,0,
2594359,RE0057,"Rua Quinze, 210a",,-19.90829125,-44.02905142,,,0,,,0,
2594360,SE0040,"Rua 15, 254b",,-19.93002106,-44.10104935,,,0,,,0,
2594363,IN0084,"Rua Aderbal Rodrigues Vaz, 1016",,-19.97610214,-44.04438524,,,0,,,0,
2594364,IN0085,"Rua Aderbal Rodrigues Vaz, 501",,-19.97958909,-44.04130862,,,0,,,0,
2594365,IN0086,"Rua Aderbal Rodrigues Vaz, 584",,-19.97898442,-44.04175902,,,0,,,0,
2594366,IN0087,"Rua Aderbal Rodrigues Vaz, 913",,-19.97797642,-44.04269243,,,0,,,0,
2594367,IN0088,"Rua Aderbal Rodrigues Vaz, 721a, Industrial",,-19.97819039,-44.04259341,,,0,,,0,
2594368,IN0089,"Rua Aderbal Rodrigues Vaz, 917, Bandeirantes",,-19.97654562,-44.04409219,,,0,,,0,
2594369,SE0041,"Rua Albert Schwaitzer, 270, Chácaras Califórnia",,-19.89871552,-44.07994984,,,0,,,0,
2594371,SE0043,"Rua Albert Schwaitzer, oposto 490",,-19.89752077,-44.07758649,,,0,,,0,
2594375,SE0400,"Rua Albert Schwaitzer, 857",,-19.89947057,-44.08156491,,,0,,,0,
2594378,IN0184,"Rua Osvaldo Cruz, 365",,-19.97162974,-44.02440196,,,0,,,0,
2594380,SE0047,"Rua Almerinda da Costa Ribeiro, 135",,-19.92524872,-44.09230301,,,0,,,0,
2594381,SE0048,"Rua Almerinda da Costa Ribeiro, 636",,-19.92793669,-44.09521564,,,0,,,0,
2594382,SE0049,"Rua Almerinda da Costa Ribeiro, 696",,-19.92848804,-44.09568787,,,0,,,0,
2594383,NA0014,"Rua Alto da Boa Vista, 220, Tijuca",,-19.85823964,-44.014637,,,0,,,0,
2594385,IN0090,"Rua Amapá, 557",,-19.96924768,-44.04026492,,,0,,,0,
2594386,IN0091,"Rua Amapá, 560",,-19.96930994,-44.04034049,,,0,,,0,
2594387,IN0092,"Rua Amapá, 810",,-19.97110072,-44.03940035,,,0,,,0,
2594388,EL0097,"Rua Américo Santiago Piacenza, 133",,-19.9396928,-44.07578458,,,0,,,0,
2594391,EL0098,"Rua Américo Santiago Piacenza, s/n",,-19.94241337,-44.07529582,,,0,,,0,
2594393,VA0190,"Rua Amundaba, 12",,-19.8528255,-44.15166078,,,0,,,0,
2594396,IN0093,"Avenida Babita Camargos, 1293 (L. O. Itambé Rações), Cidade Industrial",,-19.95317728,-44.02575705,,,0,,,0,
2594397,SE0050,"Rua Antônio Bernardino Muniz,  (oposto 161)",,-19.9182655,-44.08014096,,,0,,,0,
2594398,SE0051,"Rua Antônio Bernardino Muniz, 322 (Conexão Aeroporto)",,-19.91934607,-44.07866933,,,0,,,0,
2594399,VA0176,"Rua Garças, 315 (PC)",,-19.87925922,-44.13961976,,,0,,,0,
2594400,VA0039,"Rua Antônio de Matos Pinho, 358",,-19.86080934,-44.1358359,,,0,,,0,
2594401,VA0040,"Rua Antônio de Matos Pinho, 310",,-19.86086433,-44.13561629,,,0,,,0,
2594403,NA0015,"Rua Antonio José da Costa Ferreira, 165",,-19.8534421,-44.03056216,,,0,,,0,
2594405,EL0100,"Rua Antônio Raposo, 290",,-19.92456384,-44.03385717,,,0,,,0,
2594407,EL0101,"Rua Ao, 115",,-19.93590442,-44.02940956,,,0,,,0,
2594408,VA0041,"Rua Ápio Cardoso, 505",,-19.83069816,-44.15046547,,,0,,,0,
2594409,RE0059,"Rua Arpoador, s/n (Paróquia do Verbo Divino)",,-19.86639838,-44.02842711,,,0,,,0,
2594410,"Rua Arpoador, 40","Rua Arpoador, 40",,-19.86655477,-44.02758443,,,0,,,0,
2594411,SE0052,"Rua Mozart Pereira Lima, 215",,-19.90879353,-44.0763545,,,0,,,0,
2594412,NA0017,"Rua Assembléia, 171",,-19.83573894,-44.0378195,,,0,,,0,
2594413,NA0018,"Rua Assembléia, 172",,-19.83581459,-44.03764214,,,0,,,0,
2594415,VA0042,"Rua Aty, 138",,-19.85933177,-44.14700698,,,0,,,0,
2594416,VA0043,"Rua Aty, 312, Icaivera",,-19.85927119,-44.14695495,,,0,,,0,
2594417,IN0149,"Avenida Coronel Benjamin Guimarães, 1801, Industrial",,-19.96843975,-44.02891758,,,0,,,0,
2594420,PE0034,"Rua Barra Feliz, 464",,-19.92849594,-44.12495707,,,0,,,0,
2594422,VA0044,"Rua Barragem do Retiro, 281",,-19.83895958,-44.15495917,,,0,,,0,
2594423,IN0094,"Rua Bartolomeu Bueno, 240",,-19.96908626,-44.05323537,,,0,,,0,
2594425,SE0053,"Rua Bethoven, 397",,-19.89787783,-44.07355158,,,0,,,0,
2594426,SE0374,"Rua Oliver M Thompson, 878",,-19.89892082,-44.07264302,,,0,,,0,
2594428,PE0035,"Rua Benzol, 440",,-19.92843434,-44.11777017,,,0,,,0,
2594429,SE0055,"Rua Bernardo Monteiro, 1000 (Estância do Hibisco)",,-19.91666514,-44.0934764,,,0,,,0,
2594430,SE0056,"Rua Bernardo Monteiro, 254",,-19.91415093,-44.08756268,,,0,,,0,
2594431,SE0057,"Rua Bernardo Monteiro, 640",,-19.91485021,-44.09009534,,,0,,,0,
2594432,SE0058,"Rua Bernardo Monteiro, 610",,-19.91468817,-44.08991944,,,0,,,0,
2594433,SE0059,"Rua Bernardo Monteiro, 65 (L. O. Sacolão)",,-19.91427695,-44.08564374,,,0,,,0,
2594434,SE0060,"Rua Bernardo Monteiro, 720",,-19.91545013,-44.09213536,,,0,,,0,
2594435,SE0390,"Rua Bernardo Monteiro, 902",,-19.91545554,-44.09199549,,,0,,,0,
2594436,IN0096,"Rua Beta, 142",,-19.97193287,-44.02732357,,,0,,,0,
2594437,IN0097,"Rua Beta, 69",,-19.97081881,-44.02720245,,,0,,,0,
2594438,PE0036,"Rua Betume, 110",,-19.92830952,-44.11518127,,,0,,,0,
2594439,NA0021,"Rua Bom Jesus, 332",,-19.84015576,-44.03515392,,,0,,,0,
2594440,NA0022,"Rua Brasileira, 176",,-19.83588509,-44.03586906,,,0,,,0,
2594441,NA0023,"Rua Brasileira, 84",,-19.83787353,-44.03576238,,,0,,,0,
2594442,PE0128,"Rua Brilhante, 175",,-19.92021702,-44.13093932,,,0,,,0,
2594443,SE0061,"Rua Bueno Brandão, 15 (Igreja São Gonçalo)",,-19.91355108,-44.08431561,,,0,,,0,
2594444,EL0105,"Rua Buganville, 1829",,-19.94100525,-44.04638081,,,0,,,0,
2594445,RE0060,"Rua Buriti, 444",,-19.89307002,-44.0335315,,,0,,,0,
2594446,NA0024,"Rua Búzios, 543",,-19.86540968,-44.02543066,,,0,,,0,
2594447,NA0025,"Rua Búzios, 643",,-19.86653944,-44.02580364,,,0,,,0,
2594448,NA0026,"Rua Búzios, 659",,-19.8668407,-44.02580763,,,0,,,0,
2594449,RE0061,"Rua C, 278",,-19.90861614,-44.03178658,,,0,,,0,
2594450,RE0062,"Rua C, 257",,-19.90853125,-44.03179606,,,0,,,0,
2594451,RE0063,"Rua C, 71",,-19.9081603,-44.03321532,,,0,,,0,
2594453,VA0215,"Rua Camélia, 12",,-19.84948711,-44.14779903,,,0,,,0,
2594454,RI0047,"R. Camilo Schiara, 1220 - Flamengo, Contagem - MG,",,-19.96792754,-44.05608639,,,0,,,0,
2594455,RI0048,"Rua Camilo Schiara, 666",,-19.964894,-44.05810595,,,0,,,0,
2594457,RI0049,"Rua Camilo Schiara, 1048",,-19.96689268,-44.05718108,,,0,,,0,
2594458,RE0064,"Rua Candeia, 227",,-19.89759119,-44.03647617,,,0,,,0,
2594459,RE0065,"Rua Candeia, 471",,-19.89960919,-44.03713843,,,0,,,0,
2594460,RE0066,"Rua Candeia, 740",,-19.90188178,-44.03808281,,,0,,,0,
2594461,SE0062,"Rua Capitão Antônio Joaquim da Paixão, 123 (Rotary Club)",,-19.91563058,-44.08067413,,,0,,,0,
2594462,EL0106,"Rua Cardeal Arco Verde, 309",,-19.92464343,-44.03102693,,,0,,,0,
2594463,EL0107,"Rua Cardeal Arco Verde, 1187",,-19.9228402,-44.02984526,,,0,,,0,
2594464,EL0108,"Rua Cardeal Arco Verde, 1401- 1499",,-19.92092605,-44.02867648,,,0,,,0,
2594466,SE0063,"Rua Coronel Augusto Camargos, 2129",,-19.91794048,-44.08188198,,,0,,,0,
2594467,SE0064,"Rua Coronel Augusto Camargos, 48",,-19.9180891,-44.08169912,,,0,,,0,
2594468,SE0065,"Rua Coronel Augusto Camargos, 524",,-19.91850679,-44.08490477,,,0,,,0,
2594469,SE0066,"Rua Coronel Augusto Camargos, oposto 726",,-19.91894578,-44.08810536,,,0,,,0,
2594470,SE0067,"Rua Coronel Augusto Camargos, 726",,-19.91887002,-44.08796453,,,0,,,0,
2594471,SE0068,"Rua Coronel Augusto Camargos, 678",,-19.91881513,-44.08653894,,,0,,,0,
2594472,SE0069,"Rua Coronel Augusto Camargos, 702",,-19.91877438,-44.08697794,,,0,,,0,
2594474,RI0050,"Rua Coronel Durval de Barros, 22",,-19.97458382,-44.05629781,,,0,,,0,
2594476,RI0051,"Rua Coronel Durval de Barros, 38",,-19.97454311,-44.05652572,,,0,,,0,
2594477,RI0052,"Rua Coronel Durval de Barros, 285",,-19.97566942,-44.05942523,,,0,,,0,
2594478,RI0053,"Rua Coronel Durval de Barros, 425",,-19.97609141,-44.06067876,,,0,,,0,
2594479,RI0195,"Rua Coronel Durval de Barros, 732",,-19.9766896,-44.06354999,,,0,,,0,
2594480,RI0055,"Rua Coronel Durval de Barros, 943",,-19.97612507,-44.06575379,,,0,,,0,
2594481,SE0070,"Rua Coronel João Camargos, 174",,-19.91846724,-44.07889892,,,0,,,0,
2594484,NA0028,"Rua Coronel Murta, 468",,-19.83143443,-44.02135877,,,0,,,0,
2594485,NA0029,"Rua Coronel Murta, 615B (PC)",,-19.83281899,-44.01942769,,,0,,,0,
2594489,NA0030,"Rua Chopim, 101",,-19.86375274,-44.04566321,,,0,,,0,
2594490,NA0031,Rua Chopim (L. O. 70),,-19.86339251,-44.04529228,,,0,,,0,
2594491,PE0038,"Rua Cinquenta e seis, 221, Lucio de Abreu",,-19.9232537,-44.10514229,,,0,,,0,
2594492,PE0039,"Rua Cinqüenta e Um, 198",,-19.92439974,-44.10485783,,,0,,,0,
2594493,PE0040,"Rua Cinqüenta e Um, 367",,-19.92551487,-44.10623037,,,0,,,0,
2594494,PE0041,"Rua Cinqüenta e Um, 399",,-19.92558083,-44.10608213,,,0,,,0,
2594495,PE0042,"Rua Cinqüenta e Um, 425",,-19.92564038,-44.10835109,,,0,,,0,
2594496,EL0109,"Rua Continental, 360a",,-19.92400004,-44.04146935,,,0,,,0,
2594497,PE0043,"Avenida Adutora Várzea das Flores, 1737",,-19.92686245,-44.12397786,,,0,,,0,
2594501,RI0059,"Rua Corcovado, 277",,-19.94422309,-44.06415458,,,0,,,0,
2594502,RI0060,"Rua Corcovado, 413",,-19.94425709,-44.06545137,,,0,,,0,
2594503,RI0061,"Rua Corcovado, 414",,-19.94418126,-44.06553939,,,0,,,0,
2594507,RE0067,"Rua Cristal, 139",,-19.87996762,-44.0229519,,,0,,,0,
2594508,RE0068,"Rua Cristal, 467a",,-19.88221636,-44.02473995,,,0,,,0,
2594509,RE0069,"Rua Cristal, 496",,-19.88228455,-44.02492265,,,0,,,0,
2594514,PE0044,"Rua da Benzina, 72",,-19.92936899,-44.1190028,,,0,,,0,
2594515,NA0032,"Rua da Constituicão, 278",,-19.83379163,-44.04009799,,,0,,,0,
2594519,EL0111,"Rua Damas Ribeiro, 375",,-19.93425814,-44.03836716,,,0,,,0,
2594520,EL0112,"Rua Damas Ribeiro, 631",,-19.93545294,-44.04020395,,,0,,,0,
2594521,RE0070,"Rua das Acácias, s/n (L. O. 228)",,-19.89543521,-44.03598807,,,0,,,0,
2594522,VA0046,"Rua das Ararás, s/n (nº64 L.O)",,-19.89446851,-44.13187269,,,0,,,0,
2594523,VA0047,"Rua das Ararás, s/n (PC) (nº301 L.O)",,-19.89769373,-44.13673606,,,0,,,0,
2594524,VA0048,"Rua das Ararás, 392",,-19.89706622,-44.13257361,,,0,,,0,
2594525,VA0049,"Rua das Ararás, 205",,-19.89727808,-44.13249179,,,0,,,0,
2594527,VA0207,"Rua das Ararás, 648",,-19.89867657,-44.13499832,,,0,,,0,
2594528,VA0187,"Rua das Ararás, 674",,-19.89858956,-44.13507343,,,0,,,0,
2594530,VA0053,"Rua das Clarinetas, 46",,-19.90334774,-44.12289954,,,0,,,0,
2594532,VA0052,"Rua das Clarinetas, 98",,-19.90087186,-44.12580765,,,0,,,0,
2594533,VA0051,"Rua das Clarinetas, 25",,-19.9033153,-44.12306422,,,0,,,0,
2594534,NA0033,"Rua das Estrelas, 218",,-19.8616563,-44.02441207,,,0,,,0,
2594535,NA0034,"Rua das Estrelas, 257",,-19.86160715,-44.02432384,,,0,,,0,
2594536,RI0065,"Rua das Flôres, 1536",,-19.97379651,-44.05448881,,,0,,,0,
2594537,EL0113,"Rua das Indústrias, 137",,-19.92747383,-44.0567833,,,0,,,0,
2594538,EL0114,"Rua das Indústrias, 150",,-19.92746981,-44.05685474,,,0,,,0,
2594539,EL0115,"Rua das Indústrias, 190A",,-19.92859767,-44.05713632,,,0,,,0,
2594540,EL0116,"Rua das Indústrias, 253",,-19.92878713,-44.05708218,,,0,,,0,
2594541,EL0117,"Rua das Indústrias, 450",,-19.92997417,-44.0574472,,,0,,,0,
2594542,EL0118,"Rua das Indústrias, 441",,-19.93019611,-44.05743636,,,0,,,0,
2594543,RI0066,"Rua das Petúnias, 783",,-19.97447478,-44.05519917,,,0,,,0,
2594544,EL0119,"Rua Delfim Moreira, 134 (Paróquia Santa Maria Rainha dos Apóstolos)",,-19.94401099,-44.02925631,,,0,,,0,
2594545,SE0071,"Rua Délio da Consolação Rocha, 353",,-19.92129676,-44.0966918,,,0,,,0,
2594546,SE0072,"Rua Délio da Consolação Rocha, 604",,-19.92297457,-44.09845556,,,0,,,0,
2594547,SE0073,"Rua Délio da Consolação Rocha, oposto 209",,-19.92027865,-44.09560502,,,0,,,0,
2594552,,"Rua Dezenove, 103",,-19.92390286,-44.11930747,,,0,,,0,
2594553,RE0071,"Rua Dezenove, 142",,-19.9057597,-44.03640749,,,0,,,0,
2594554,,"Rua Dezenove, 354",,-19.92392384,-44.11945301,,,0,,,0,
2594555,PE0047,"Rua 15, s/n (L.O  ao 75)",,-19.92916566,-44.10282626,,,0,,,0,
2594556,RE0072,"Rua Dezoito, 150",,-19.90657813,-44.02928086,,,0,,,0,
2594557,RE0073,"Rua Diamante, 1253 (L. O. Mart Minas)",,-19.88218294,-44.02826477,,,0,,,0,
2594558,RE0184,"Rua Diamante, 832",,-19.87898232,-44.02563771,,,0,,,0,
2594559,RE0075,"Rua Diamante, 433",,-19.8801872,-44.02655474,,,0,,,0,
2594560,RE0076,"Rua Diamante, 492",,-19.8805111,-44.02693065,,,0,,,0,
2594561,VA0054,"Rua do Ipê, 15",,-19.81351281,-44.14774066,,,0,,,0,
2594562,VA0055,"Rua do Ipê, 136",,-19.81212202,-44.14427063,,,0,,,0,
2594563,VA0056,"Rua do Ipê, 240",,-19.81120973,-44.14298436,,,0,,,0,
2594564,VA0057,"Rua do Ipê, s/n (L. O. 264)",,-19.81081538,-44.14206469,,,0,,,0,
2594565,VA0058,"Rua do Ipê, 80",,-19.81264476,-44.14620838,,,0,,,0,
2594566,VA0059,"Rua do Ipê, 87",,-19.81265533,-44.14647046,,,0,,,0,
2594567,SE0074,"Rua Levi Diniz Costa, L. O. 21 - Campo de Futebol",,-19.8904923,-44.0858501,,,0,,,0,
2594568,NA0035,"Rua do Luar, 20",,-19.862114,-44.022175,,,0,,,0,
2594570,SE0075,"Rua Dom Silvério, oposto 316",,-19.90948833,-44.08028429,,,0,,,0,
2594571,SE0076,"Rua Doná Herculina, 270",,-19.91914872,-44.09053246,,,0,,,0,
2594572,SE0077,"Rua Doná Herculina, 317",,-19.91939251,-44.09091386,,,0,,,0,
2594573,SE0078,"Rua do Registro, 1614",,-19.90215697,-44.09302172,,,0,,,0,
2594574,SE0079,"Rua do Registro, 120",,-19.91376005,-44.08983676,,,0,,,0,
2594575,SE0080,"Rua do Registro, 188",,-19.91320739,-44.09007809,,,0,,,0,
2594576,SE0081,"Rua Felisbino Pinto Monteiro, 32",,-19.89696738,-44.09297984,,,0,,,0,
2594577,SE0082,Rua do Registro 1010,,-19.89917311,-44.09321091,,,0,,,0,
2594578,SE0083,"Rua do Registro, L. O. nº 1965 (L. O. Posto Ipiranga)",,-19.89879991,-44.09305197,,,0,,,0,
2594579,SE0084,"Rua do Registro, 1459 (Supermercados BH)",,-19.89676324,-44.09283973,,,0,,,0,
2594580,SE0085,"Rua do Registro, 1585",,-19.90157083,-44.09308616,,,0,,,0,
2594581,SE0086,"Rua do Registro, 1981 (Acad. Corpo de Bombeiros)",,-19.89449641,-44.09375015,,,0,,,0,
2594582,SE0087,"Rua do Registro, 2020",,-19.89195196,-44.09426058,,,0,,,0,
2594583,SE0088,"Rua do Registro, 356",,-19.91213518,-44.08990233,,,0,,,0,
2594584,SE0089,"Rua do Registro, s/n (Academia Ao Ar Livre)",,-19.90887906,-44.09141594,,,0,,,0,
2594585,SE0090,"Rua do Registro, 1653",,-19.90665278,-44.09202917,,,0,,,0,
2594586,SE0091,"Rua do Registro, 790 (Padaria Vó Maria)",,-19.90623545,-44.0921583,,,0,,,0,
2594587,SE0093,"Rua do Registro, 905 (Residencial Xapuri)",,-19.90453927,-44.09311078,,,0,,,0,
2594588,SE0092,"Rua do Registro, 905",,-19.90444863,-44.09324363,,,0,,,0,
2594589,PE0048,"Rua dos Anturios, 118",,-19.91706729,-44.12432056,,,0,,,0,
2594590,VA0060,"Rua dos Coqueiros, 56 (PC)",,-19.81181431,-44.14159706,,,0,,,0,
2594591,EL0120,"Rua dos Emboabas, 26",,-19.92190398,-44.03660338,,,0,,,0,
2594592,VA0061,"Rua dos Pianos, 56",,-19.90459486,-44.12538265,,,0,,,0,
2594593,VA0062,"Rua dos Pianos, 72",,-19.90614625,-44.12623506,,,0,,,0,
2594595,VA0064,"Rua dos Trombones, 96",,-19.90474718,-44.12772104,,,0,,,0,
2594596,VA0063,"Rua Dos Trombones, 28",,-19.9021406,-44.12620336,,,0,,,0,
2594598,RE0077,"Rua Doutor Mariano de Oliveira, 147",,-19.88888706,-44.02724059,,,0,,,0,
2594599,RE0078,"Rua Doutor Mariano de Oliveira, 331",,-19.89053904,-44.0266693,,,0,,,0,
2594600,RE0079,"Rua Doutor Mariano de Oliveira, 723",,-19.89365663,-44.02559893,,,0,,,0,
2594601,RE0080,"Rua Ébano, 230",,-19.895216,-44.03774946,,,0,,,0,
2594602,SE0094,"Rua Elza Fernandes Carneiro, 31",,-19.93228958,-44.08877008,,,0,,,0,
2594603,RE0081,"Rua Esmeralda, 338",,-19.88060354,-44.02290456,,,0,,,0,
2594604,RI0067,"Rua Estrela Dalva, 111 (Saritur)",,-19.97295446,-44.06141498,,,0,,,0,
2594605,RE0175,"Rua Eucalipto, 251, Arvoredo",,-19.8770616,-44.02885646,,,0,,,0,
2594606,RE0175,"Rua Eucalípto, 270, Arvoredo",,-19.87751378,-44.02785799,,,0,,,0,
2594607,SE0095,"Rua Eugênio Nápoli, 1338",,-19.93452048,-44.08506456,,,0,,,0,
2594608,SE0096,"Rua Eugênio Nápoli, 1452",,-19.93430662,-44.08640799,,,0,,,0,
2594609,SE0097,"Rua Eugênio Nápoli, 1592",,-19.93418887,-44.08765418,,,0,,,0,
2594610,SE0098,"Rua Eugênio Nápoli, 1746",,-19.93407491,-44.08908187,,,0,,,0,
2594611,NA0036,"Rua Felipe dos Santos, 182",,-19.84683281,-44.02343089,,,0,,,0,
2594612,NA0037,"Rua Felipe dos Santos, 650",,-19.84888408,-44.022535,,,0,,,0,
2594613,NA0140,"Rua Felipe dos Santos,",,-19.84446544,-44.02445418,,,0,,,0,
2594614,SE0099,"Rua Felisbino Pinto Monteiro, 1301",,-19.8948708,-44.09168899,,,0,,,0,
2594615,SE0100,"Rua Felisbino Pinto Monteiro, s/n (L. O. 1650)",,-19.89208222,-44.09044738,,,0,,,0,
2594616,SE0287,"Rua Felisbino Pinto Monteiro, s/n (L. O. 1650)",,-19.89221809,-44.09057993,,,0,,,0,
2594617,SE0101,"Rua Felisbino Pinto Monteiro, oposto 1855",,-19.88976794,-44.09028182,,,0,,,0,
2594618,SE0102,"Rua Felisbino Pinto Monteiro, próximo 1855",,-19.88981854,-44.09035651,,,0,,,0,
2594619,SE0103,"Rua Felisbino Pinto Monteiro, próximo 2130",,-19.88766403,-44.09020638,,,0,,,0,
2594620,SE0104,R. Felisbino Pinto Monteiro oposto 2130,,-19.88776559,-44.0903405,,,0,,,0,
2594621,RE0083,"Rua Fênix, 267",,-19.87731597,-44.03080365,,,0,,,0,
2594622,RE0084,"Rua Fênix, 42",,-19.8791547,-44.03144061,,,0,,,0,
2594623,RE0085,"Rua Fênix, 301",,-19.87710178,-44.03067999,,,0,,,0,
2594624,RE0086,"Rua Fênix, 61",,-19.87916539,-44.03154012,,,0,,,0,
2594625,PE0049,"Rua Fiscal João Militão, 254",,-19.9231703,-44.11971359,,,0,,,0,
2594626,PE0050,"Rua Fiscal João Militão, 392",,-19.92401193,-44.12054806,,,0,,,0,
2594629,EL0121,"Rua Francisco Alves, 244",,-19.92150583,-44.05551936,,,0,,,0,
2594631,SE0106,"Rua Francisco Miguel, 250 (Sorveteria)",,-19.91716433,-44.08045509,,,0,,,0,
2594633,SE0108,"Rua Gaforina, 249, Chácara Contagem",,-19.91805167,-44.10171142,,,0,,,0,
2594634,SE0109,"Rua Gaforina, 435",,-19.91883355,-44.10376385,,,0,,,0,
2594635,SE0110,"Rua Galdino Monteiro Silva, 200",,-19.8987947,-44.08213403,,,0,,,0,
2594636,VA0074,"Rua das Garças, 74",,-19.89282115,-44.12828934,,,0,,,0,
2594637,PE0052,"Rua Gasolina, 125",,-19.93074923,-44.1102117,,,0,,,0,
2594639,RI0068,"Rua Geremias Alves, 400",,-19.97386933,-44.06076976,,,0,,,0,
2594640,RI0069,"Rua Geremias Alves, 566",,-19.97364235,-44.06233537,,,0,,,0,
2594641,VA0068,"Rua Geraldo de Souza Meireles, 470",,-19.87724603,-44.09394157,,,0,,,0,
2594642,SE0111,"Rua Geraldo de Souza Meireles, 100",,-19.87915364,-44.09101618,,,0,,,0,
2594643,SE0462,"Rua Geraldo Januário de Araújo, 346, Funcionário",,-19.91687001,-44.07128829,,,0,,,0,
2594644,SE0113,"Rua Geraldo de Souza Meireles, oposto 195",,-19.88059481,-44.09013074,,,0,,,0,
2594645,SE0114,"Rua Geraldo de Souza Meireles, 377",,-19.87925546,-44.09085032,,,0,,,0,
2594646,RI0185,"Rua Geremias Alves, 651",,-19.97360253,-44.06321686,,,0,,,0,
2594648,EL0259,"Rua Francisco Alves, 22",,-19.92428437,-44.05489084,,,0,,,0,
2594651,NA0040,"Rua Guaxupé, 96, Tijuca",,-19.86244916,-44.02085443,,,0,,,0,
2594652,SE0115,"Rua Antônio Pinto Lana, 220",,-19.89457023,-44.08636045,,,0,,,0,
2594656,NA0042,"Rua Henriqueta Mendonça Rigolon, s/n (L. O. Praça Nossa Senhora da Conceição)",,-19.85482887,-44.03791523,,,0,,,0,
2594657,VA0069,"Rua Hercílio Gomes da Silveira, 190",,-19.86278054,-44.1347255,,,0,,,0,
2594658,VA0070,"Rua Hercílio Gomes da Silveira, 217",,-19.86286018,-44.13478356,,,0,,,0,
2594659,RE0087,"Rua Hermes da Fonseca, 582",,-19.90473995,-44.0294298,,,0,,,0,
2594661,EL0122,"Rua Humaitá, 125",,-19.92782187,-44.02545608,,,0,,,0,
2594663,SE0116,"Rua Humberto Antoniazzi, 208",,-19.87792439,-44.0934421,,,0,,,0,
2594666,VA0192,"Rua I, 25",,-19.85286158,-44.14975315,,,0,,,0,
2594667,RE0089,"Rua Iguaçaba, 254 (PC)",,-19.88820932,-44.01714132,,,0,,,0,
2594669,SE0118,"Rua Isaías José Diniz, 320",,-19.89963524,-44.08581243,,,0,,,0,
2594670,SE0119,"Rua Jacarandá, 494",,-19.8949179,-44.09620241,,,0,,,0,
2594672,EL0124,"Rua Jaguará, 354",,-19.93087286,-44.05582212,,,0,,,0,
2594673,RI0070,"Rua Jaír Rodrigues Vallê, 149a",,-19.95341288,-44.03844805,,,0,,,0,
2594674,IN0099,"Rua Jardin América, 113",,-19.96981911,-44.02426724,,,0,,,0,
2594677,EL0125,"Rua Jequitibás, 1038a",,-19.93706634,-44.03416576,,,0,,,0,
2594678,SE0203,"Rua Manoel João Diniz Camargos, 71 (PC - E. E. Maria Coutinho)",,-19.90220372,-44.07949487,,,0,,,0,
2594679,EL0126,"Rua Jequitibás, 530 (Estação Eldorado - Ponto 1 Sentido Bairro)",,-19.93963489,-44.02872941,,,0,,,1,
2594680,EL0127,"Rua Jequitibás, 530 (Estação Eldorado - Ponto 4 Sentido Cidade Industrial)",,-19.94033516,-44.02788967,,,0,,,1,
2594681,NA0043,"Rua Joaíma, 465",,-19.86206845,-44.03772716,,,0,,,0,
2594683,SE0309,"Rua João Bôsco Martins, 248",,-19.91817186,-44.07236563,,,0,,,0,
2594685,SE0124,"Avenida João de Deus Costa, oposto 140",,-19.91743265,-44.07755657,,,0,,,0,
2594686,NA0152,"Rua João Menezes Soares, 519",,-19.8392549,-44.02518665,,,0,,,0,
2594687,SE0125,"Rua Joaquim Camargos, 110 (Cartório Registro de Imóveis)",,-19.91090964,-44.08158837,,,0,,,0,
2594688,EL0128,"Rua Joaquim Camargos, 325",,-19.93323794,-44.03508207,,,0,,,0,
2594689,RE0159,"Rua K, 578",,-19.8676743,-44.02169191,,,0,,,0,
2594690,EL0129,"Rua Joaquim Camargos, 533",,-19.9314392,-44.03620566,,,0,,,0,
2594691,SE0126,"Rua Joaquim José, 1175",,-19.92587152,-44.08203546,,,0,,,0,
2594692,SE0127,"Rua Joaquim José, oposto 2448",,-19.92803328,-44.08255467,,,0,,,0,
2594693,SE0128,"Rua Joaquim José, 2472",,-19.92823479,-44.08264158,,,0,,,0,
2594694,SE0129,"Rua Joaquim José, 725B",,-19.92133923,-44.0810873,,,0,,,0,
2594696,SE0131,"Rua Joaquim José, 444",,-19.9187227,-44.08128015,,,0,,,0,
2594697,NA0046,"Rua Jordânia, 1115",,-19.85564826,-44.03005443,,,0,,,0,
2594698,NA0047,"Rua Jordânia, 439",,-19.85707459,-44.03374205,,,0,,,0,
2594699,NA0048,"Rua Jordânia, 765",,-19.8584336,-44.03723778,,,0,,,0,
2594700,SE0132,"Rua José Lucas de Oliveira, 28",,-19.90176864,-44.0732792,,,0,,,0,
2594701,RE0090,"Rua José Mendes Ferreira, s/n (L. O. 800)",,-19.90869473,-44.03430432,,,0,,,0,
2594702,SE0133,"Rua José Paulino de Oliveira Leôncio, 56",,-19.93154214,-44.0839109,,,0,,,0,
2594703,SE0134,"Rua  José Rodrigues Guilherme, 238",,-19.919965,-44.085367,,,0,,,0,
2594704,SE0135,"Rua José Rodrigues Guilherme, oposto 826",,-19.92349743,-44.08946355,,,0,,,0,
2594705,NA0049,"Rua José Soares da Costa Neto, 240",,-19.84535894,-44.04117942,,,0,,,0,
2594706,NA0109,"Rua Laudelina Castorina, 239",,-19.8596889,-44.02094925,,,0,,,0,
2594707,NA0156,"R. Laudelina Castorina, s/n (L. O. 401), Tijuca",,-19.85917603,-44.02427405,,,0,,,0,
2594708,RI0071,"Rua Leblon, s/n (L. O. 36)",,-19.9755158,-44.06629752,,,0,,,0,
2594710,NA0052,"Rua Lúcia Muniz, 227 (Supermercados BH)",,-19.84144004,-44.0258035,,,0,,,0,
2594711,NA0053,"Rua Luz, 14 (PC), Tijuca",,-19.85811043,-44.01626308,,,0,,,0,
2594712,,"Rua Madeirao, 110",,-19.9312076,-44.12155746,,,0,,,0,
2594713,,"Rua Mamoré, 392",,-19.92943375,-44.12362626,,,0,,,0,
2594714,RE0091,"Rua Mandarim, 410",,-19.88115385,-44.04681269,,,0,,,0,
2594715,IN0100,"Rua Manjericão, 644",,-19.97349371,-44.04751601,,,0,,,0,
2594716,SE0137,"Rua Manoel Alves, s/n (L. O. UPA Unidade 16)",próximo 39,-19.91095851,-44.08262183,,,0,,,0,
2594718,SE0138,"Rua Manoel Pereira Mendes, 142",,-19.93457517,-44.07853559,,,0,,,0,
2594719,SE0139,"Rua Maria Augusta Belém, 228",,-19.9186748,-44.09810673,,,0,,,0,
2594720,SE0140,"Rua Maria da Conceição de São José, 155",,-19.91266765,-44.08254295,,,0,,,0,
2594721,SE0141,"Rua Maria Olinda Nascimento, 48",,-19.90578788,-44.07191201,,,0,,,0,
2594722,NA0054,"Rua Maria Soares Chaves, 180",,-19.83920421,-44.02159386,,,0,,,0,
2594723,RI0072,"Rua Marte, 279 (E. E. Dr. José Roberto de Aguiar), Jardim Riacho das Pedras",,-19.96089654,-44.05773806,,,0,,,0,
2594724,RI0073,"Rua Marte, 919",,-19.96675921,-44.05906817,,,0,,,0,
2594725,PE0056,"Rua Matipó, 65",,-19.933241,-44.121296,,,0,,,0,
2594726,PE0057,"Rua Mato Grosso, 365a",,-19.92878572,-44.10883552,,,0,,,0,
2594728,IN0101,"Rua Minas Gerais, 325",,-19.97080397,-44.02395377,,,0,,,0,
2594729,NA0055,"Rua Monsenhor Guedes, 320",,-19.8599225,-44.0227564,,,0,,,0,
2594730,RE0093,"Rua Monsenhor João Martins, 2188",,-19.90242091,-44.03108343,,,0,,,0,
2594731,,"Rua Monsenhor Messías, 1029",,-19.96723516,-44.05555022,,,0,,,0,
2594732,IN0103,"Rua Monsenhor Joao Rodrigues Guimaráes, 184",,-19.96534117,-44.02688312,,,0,,,0,
2594733,VA0072,"Rua Morossema, 105",,-19.85830921,-44.14849933,,,0,,,0,
2594734,SE0308,"Rua Natal Veronez, 1079",,-19.91397889,-44.07234002,,,0,,,0,
2594735,EL0130,"Rua Nossa Senhora de Fátima, 1237",,-19.93080658,-44.03300129,,,0,,,0,
2594736,RI0074,"Rua Odésio Vicente da Silva, 110",,-19.95135668,-44.0436432,,,0,,,0,
2594738,PE0058,"Rua Oitenta e Dois, 294, Tropical",,-19.91147167,-44.11721988,,,0,,,0,
2594739,SE0143,"Rua Oliver M Thompson, 637",,-19.90221439,-44.07175915,,,0,,,0,
2594741,IN0105,"Rua Padre Antônio Viêira, 474",,-19.9687558,-44.02285094,,,0,,,0,
2594742,IN0106,"Rua Padre José de Carvalho, 147",,-19.97109814,-44.0291457,,,0,,,0,
2594743,RI0075,"Rua Padre José Maria de Man, 1480",,-19.94801165,-44.06957822,,,0,,,0,
2594744,RI0076,"Rua Padre José Maria de Man, 1607 (Supermercado Dia)",,-19.94805696,-44.07078531,,,0,,,0,
2594745,RI0077,"Rua Padre José Maria de Man, 1770",,-19.94786495,-44.07230987,,,0,,,0,
2594746,RI0078,"Rua Padre José Maria de Man, 1964",,-19.94688312,-44.07371158,,,0,,,0,
2594747,RI0079,"Rua Padre José Maria de Man, 2027",,-19.94664404,-44.07408421,,,0,,,0,
2594748,RI0080,"Rua Padre José Maria de Man, 408",,-19.95215525,-44.06159358,,,0,,,0,
2594749,EL0131,"Rua Paineiras, 1050A",,-19.93732149,-44.0345115,,,0,,,0,
2594750,EL0132,"Rua Paineiras, 1500 (E. M. Antônio Carlos Lemos)",,-19.93972658,-44.03781305,,,0,,,0,
2594752,EL0133,"Rua Paineiras, 2128",,-19.93818111,-44.0377231,,,0,,,0,
2594753,EL0134,"Rua Paineiras, 2030",,-19.93937611,-44.03857906,,,0,,,0,
2594754,SE0144,"Rua Palmeiras, 1530",,-19.90080173,-44.10716494,,,0,,,0,
2594755,SE0145,"Rua Palmeiras, 1573",,-19.90094021,-44.10713859,,,0,,,0,
2594757,SE0146,"Rua Palmeiras, 455",,-19.8970363,-44.09707304,,,0,,,0,
2594758,PE0059,"Rua Pará, 199",,-19.92940421,-44.10699403,,,0,,,0,
2594759,PE0060,"Rua Pará, 68",,-19.92978228,-44.10846422,,,0,,,0,
2594760,PE0061,"Rua Pará, s/n (L. O. 520 - Campo de Futebol)",,-19.92880744,-44.10406838,,,0,,,0,
2594762,SE0148,"Rua Passos, 202",,-19.9276762,-44.09572375,,,0,,,0,
2594763,SE0149,"Rua Passos, 237",,-19.92565081,-44.09791018,,,0,,,0,
2594764,SE0150,"Rua Passos, 256",,-19.92550551,-44.09798604,,,0,,,0,
2594765,SE0151,"Rua Passos, 348",,-19.92694022,-44.09653288,,,0,,,0,
2594766,SE0152,"Rua Passos, 395 (L. O. E. E. Manoel de Mattos Pinho)",,-19.92438306,-44.09927958,,,0,,,0,
2594767,SE0153,"Rua Passos, oposto 417",L.O 417 (E. E. Manoel de Mattos Pinho),-19.9242298,-44.09933213,,,0,,,0,
2594768,NA0056,"Rua Paulo César de Mendonça, 27",,-19.85462852,-44.03753887,,,0,,,0,
2594769,EL0135,"Rua Paulo Sérgio, 385a",,-19.93027981,-44.03446475,,,0,,,0,
2594770,PE0062,"Rua das Violetas, 462",,-19.91907888,-44.1245408,,,0,,,0,
2594771,PE0161,"Rua Pedra da Luz, 321",,-19.91473648,-44.12970725,,,0,,,0,
2594772,PE0063,"Rua Pedra da Luz, s/n (L. O. 212)",,-19.91526637,-44.1288848,,,0,,,0,
2594773,SE0154,"Rua Pelegrino de Paula Ferreira, 538",,-19.91385908,-44.08704673,,,0,,,0,
2594777,PE0065,"Rua Petróleo, 145",,-19.92884229,-44.11586673,,,0,,,0,
2594778,,"Rua Piche, 88",,-19.92741422,-44.12390819,,,0,,,0,
2594779,VA0073,"Rua Piedade, 120 (PC)",,-19.82985577,-44.1542767,,,0,,,0,
2594780,VA0074,"Rua Pirapanema, 183",,-19.85597295,-44.14831371,,,0,,,0,
2594781,VA0075,"Rua Pirapanema, 192",,-19.85596996,-44.14842484,,,0,,,0,
2594782,VA0076,"Rua Pirapanema, 409",,-19.85736578,-44.14949981,,,0,,,0,
2594783,VA0077,"Rua Pirapanema, 414",,-19.85731629,-44.14954933,,,0,,,0,
2594784,VA0078,"Rua Pirapanema, 79b",,-19.85516455,-44.14734798,,,0,,,0,
2594785,EL0136,"Rua Possua, 358",,-19.92999753,-44.05353911,,,0,,,0,
2594786,EL0137,"Rua Possua, 548 (Pç Nossa Sr.ª da Conceição)",,-19.93127337,-44.05328981,,,0,,,0,
2594789,NA0057,"Rua Lucia Muniz, s/n (L.O 792)",,-19.84021966,-44.02944863,,,0,,,0,
2594790,SE0157,"Rua Professor Alves Horta, 6",,-19.91152309,-44.0678629,,,0,,,0,
2594791,SE0158,"Rua Aníbal Barca, 26",,-19.90886834,-44.06730455,,,0,,,0,
2594793,PE0067,"Rua Quarenta e Dois, 332",,-19.92397875,-44.11075617,,,0,,,0,
2594794,PE0068,"Rua Quarenta e Dois, 362",,-19.92376246,-44.11088218,,,0,,,0,
2594795,PE0069,"Rua Quarenta e Dois, 447",,-19.92484108,-44.1098841,,,0,,,0,
2594796,PE0070,"Rua Quarenta e Dois, 463",,-19.92490067,-44.10997667,,,0,,,0,
2594797,PE0172,"Rua Quarenta e Três, 150",,-19.9218036,-44.10884456,,,0,,,0,
2594798,PE0072,"Rua Quarenta e Três, 248",,-19.92212239,-44.11002498,,,0,,,0,
2594799,PE0191,"Rua Quarenta e Três, 246",,-19.92215867,-44.11033471,,,0,,,0,
2594800,SE0159,"Rua Quaresmeira, 1643 (PC)",,-19.90411028,-44.10732865,,,0,,,0,
2594801,RE0095,"Rua Quatro, s/n (L. O. CEASA)",,-19.89381773,-44.04921859,,,0,,,0,
2594802,RE0096,"Rua Quatro, 220",,-19.88819072,-44.04906973,,,0,,,0,
2594803,VA0221,"Rua Quatro, s/n",,-19.85160347,-44.15295334,,,0,,,0,
2594804,RE0097,"Rua Quatro, s/n (PC)",,-19.894133,-44.04918373,,,0,,,0,
2594805,VA0222,"Rua Quatro, s/n",,-19.85186584,-44.15291579,,,0,,,0,
2594806,NA0058,"Rua Quintino Bocaiúva, 1024",,-19.85220883,-44.03021232,,,0,,,0,
2594807,NA0059,"Rua Quintino Bocaiúva, 241",,-19.84958433,-44.02320767,,,0,,,0,
2594808,NA0060,"Rua Quintino Bocaiúva, 333",,-19.84991815,-44.02425952,,,0,,,0,
2594809,NA0061,"Rua Quintino Bocaiúva, 452",,-19.85032992,-44.02514488,,,0,,,0,
2594811,NA0062,"Rua Quintino Bocaiúva, 694",,-19.85113192,-44.02723089,,,0,,,0,
2594812,NA0063,"Rua Quintino Bocaiúva, 794",,-19.85141316,-44.02815708,,,0,,,0,
2594813,PE0074,"Rua Refinária Duque de Caxias, 361",,-19.93050293,-44.11532275,,,0,,,0,
2594814,PE0075,"Rua Refinária Duque de Caxias, 1024",,-19.92811052,-44.12077387,,,0,,,0,
2594815,PE0076,"Rua Refinária Duque de Caxias, 1264",,-19.92730471,-44.122649,,,0,,,0,
2594816,PE0077,"Rua Refinária Duque de Caxias, 185",,-19.93123725,-44.11360551,,,0,,,0,
2594817,PE0078,"Rua Refinaria Duque de Caxias, 30",,-19.9318332,-44.11220667,,,0,,,0,
2594818,PE0079,"Rua Refinária Duque de Caxias, 538",,-19.92985418,-44.11666533,,,0,,,0,
2594819,PE0080,"Rua Refinária Duque de Caxias, 699",,-19.9293185,-44.11792699,,,0,,,0,
2594820,PE0081,"Rua Refinária Duque de Caxias, 806",,-19.92885083,-44.11903682,,,0,,,0,
2594821,PE0082,"Rua Refinária Gabriel Passos, 203",,-19.92876254,-44.11778014,,,0,,,0,
2594823,PE0084,"Rua Refinária Gabriel Passos, 416",,-19.92787767,-44.11964147,,,0,,,0,
2594824,PE0085,"Rua Refinária Gabriel Passos, 611C, Petrolândia",,-19.92723146,-44.12131218,,,0,,,0,
2594825,PE0086,"Avenida Imbiruçu, 41",,-19.92768218,-44.12354141,,,0,,,0,
2594826,PE0087,"Rua Refinaria Manguinhos, 459",,-19.93067637,-44.11661416,,,0,,,0,
2594827,PE0088,"Rua Refinaria Manguinhos, 697",,-19.92974867,-44.11879281,,,0,,,0,
2594828,PE0089,"Rua Refinaria Manguinhos, 919",,-19.92893003,-44.12070875,,,0,,,0,
2594829,PE0090,"Rua Refinária União, 120",,-19.93033092,-44.1134457,,,0,,,0,
2594830,SE0160,"Rua Reginaldo de Souza Lima, 679",,-19.93156066,-44.08219659,,,0,,,0,
2594831,SE0161,"Rua Reginaldo de Souza Lima, 738",,-19.93054478,-44.08257467,,,0,,,0,
2594832,SE0162,"Rua Renato Azeredo, oposto 243",,-19.92904577,-44.10060481,,,0,,,0,
2594833,SE0163,"Rua Renato Azeredo, 243",,-19.92921431,-44.10077916,,,0,,,0,
2594834,VA0079,"Rua Retiro das Aves, s/n, Retiro",,-19.83723545,-44.14401016,,,0,,,0,
2594835,VA0080,"Rua Retiro das Aves, s/n (L. O. 277), Retiro",,-19.84065329,-44.14296983,,,0,,,0,
2594836,VA0081,"Rua Retiro das Esmeraldas, s/n (L. O. 19)",,-19.83875713,-44.14945861,,,0,,,0,
2594837,VA0082,"Rua Retiro das Esmeraldas, 758",,-19.83642971,-44.15101422,,,0,,,0,
2594838,VA0083,"R. Retiro das Esmeraldas, 823",,-19.83635279,-44.15137187,,,0,,,0,
2594839,VA0084,"R. Retiro das Esmeraldas, 438",,-19.83590242,-44.15226772,,,0,,,0,
2594840,VA0085,"Rua Retiro das Esmeraldas, 342",,-19.83666186,-44.15082872,,,0,,,0,
2594842,VA0087,"Rua Retiro dos Padres, 322",,-19.83688351,-44.14474751,,,0,,,0,
2594844,RI0081,"Rua Rio Araguari, 191",,-19.95491074,-44.059504,,,0,,,0,
2594845,RI0082,"Rua Rio Colorado, 178",,-19.95574883,-44.05404129,,,0,,,0,
2594846,RI0083,"Rua Rio Colorado, 205",,-19.95586028,-44.05397943,,,0,,,0,
2594854,,"Rua Rio Comprido, 250",,-19.95009481,-44.04243883,,,0,,,0,
2594856,RI0085,"Rua Rio Comprido, 4388",,-19.94384149,-44.0763458,,,0,,,0,
2594857,EL0138,"Rua Rio Comprido, s/n (Portaria 4 PUC MG)",,-19.94008145,-44.07697865,,,0,,,0,
2594858,EL0139,"Rua Rio Comprido, 255 (Portaria 2 PUC MG)",,-19.93832763,-44.07704728,,,0,,,0,
2594859,RI0086,"Rua Rio Congo, 218",,-19.9502523,-44.05497457,,,0,,,0,
2594860,RI0087,"Rua Rio Doce, 320",,-19.95070223,-44.05613359,,,0,,,0,
2594863,RI0089,"Rua Rio Elba, 347",,-19.95504126,-44.05967641,,,0,,,0,
2594865,RI0090,"Rua Rio Elba, 103 (Fasi)",,-19.95274062,-44.05967719,,,0,,,0,
2594866,RI0091,"Rua Rio Elba, 82",,-19.95293797,-44.05974714,,,0,,,0,
2594869,RI0094,"Rua Rio Ganges, 448",,-19.95079506,-44.05948994,,,0,,,0,
2594870,IN0107,"Rua Rio Madeira, 202",,-19.96501543,-44.03944059,,,0,,,0,
2594871,IN0108,"Rua Rio Madeira, 215",,-19.96512307,-44.03930556,,,0,,,0,
2594872,IN0109,"Rua Rio Madeira, 409",,-19.96662227,-44.03853773,,,0,,,0,
2594873,IN0110,"Rua Rio Madeira, 424",,-19.96686415,-44.03851027,,,0,,,0,
2594874,RI0095,"Rua Rio Mantiqueira, 175",,-19.95052107,-44.06289716,,,0,,,0,
2594876,RI0096,"Rua Rio Mantiqueira, 333",,-19.94917179,-44.06290491,,,0,,,0,
2594877,RI0097,"Rua Rio Mantiqueira, 885",,-19.94572598,-44.06290674,,,0,,,0,
2594878,RI0098,"Rua Rio Mantiqueira, 768",,-19.94485806,-44.06280419,,,0,,,0,
2594879,RI0099,"Rua Rio Mantiqueira, 865",,-19.94447296,-44.06291269,,,0,,,0,
2594880,RI0100,"Rua Rio Mossoró, 22",,-19.94975,-44.043522,,,0,,,0,
2594881,RI0101,"Rua Rio Mossoró, 385a",,-19.95288342,-44.04481477,,,0,,,0,
2594883,EL0141,"Rua Rio Mossoró, 500",,-19.92283643,-44.0321867,,,0,,,0,
2594884,IN0111,"Rua Rio Negro, 383",,-19.96634084,-44.04023346,,,0,,,0,
2594885,RI0102,"Rua Rio Paranaguá, 1149 (L. O. Pça Maria dos Santos Chagas)",,-19.95537046,-44.05839542,,,0,,,0,
2594886,RI0103,"Rua Rio Paranaguá, s/n (Pça Maria dos Santos Chagas)",,-19.95570967,-44.05886619,,,0,,,0,
2594887,RI0104,"Rua Rio Paranaguá, 955",,-19.95426725,-44.05651274,,,0,,,0,
2594888,RI0105,"Rua Rio Paranaguá, 940",,-19.95424228,-44.05662647,,,0,,,0,
2594891,VA0088,"Rua Rio Retiro, 15",,-19.84261961,-44.15026101,,,0,,,0,
2594892,VA0089,"Rua Rio Retiro, 214",,-19.84059207,-44.15045188,,,0,,,0,
2594893,VA0090,"Rua Rio Retiro, 247",,-19.84022119,-44.15085062,,,0,,,0,
2594894,VA0091,"Rua Rio Retiro, 42",,-19.84222016,-44.15001637,,,0,,,0,
2594895,VA0092,"Rua Rio Retiro, 509A",,-19.83839665,-44.15247676,,,0,,,0,
2594896,VA0093,"R. Rio Retiro, 739",,-19.83722829,-44.15430486,,,0,,,0,
2594897,VA0094,"R. Rio Retiro, 788",,-19.83693183,-44.15472597,,,0,,,0,
2594898,RI0173,"Rua Rio Solimões, 304",,-19.95159279,-44.05905591,,,0,,,0,
2594899,RI0106,"Rua Rio Ganges, 291",,-19.95151331,-44.05983881,,,0,,,0,
2594900,RI0107,"Rua Rio Urucuia, 44",,-19.94850286,-44.0478431,,,0,,,0,
2594901,RI0108,"Rua Rio Verde, 219",,-19.95021149,-44.04663866,,,0,,,0,
2594902,RI0109,"Rua Rio Xingu, 1179, Riacho das Pedras",,-19.95461719,-44.05059763,,,0,,,0,
2594903,RI0110,"Rua Rio Xingu, 542",,-19.95243211,-44.04610582,,,0,,,0,
2594904,RI0111,"Rua Rio Xingu, 541",,-19.95235759,-44.0465337,,,0,,,0,
2594905,RI0112,"Rua Rio Xingu, 789",,-19.95216335,-44.04811101,,,0,,,0,
2594906,RI0113,"Rua Rio Xingu, 890",,-19.9528674,-44.04887327,,,0,,,0,
2594907,RI0114,"Rua Rio Xingu, 911, Conj. Hab. Jard. Califórnia",,-19.95311106,-44.04885422,,,0,,,0,
2594908,SE0227,"Rua Geraldo de Souza Meireles, 196",,-19.88073904,-44.09014536,,,0,,,0,
2594909,NA0064,"Rua Rita Camargos, 285",,-19.83846951,-44.03475059,,,0,,,0,
2594910,NA0065,"Rua Lucia Muniz, 28",,-19.8407241,-44.02770147,,,0,,,0,
2594911,NA0066,"Rua Rita Camargos, 320",,-19.83955934,-44.03199755,,,0,,,0,
2594912,NA0067,"Rua Lucia Muniz, 51-A",,-19.84068241,-44.02763524,,,0,,,0,
2594913,,"Rua Lucia Muniz, 9",,-19.84033726,-44.02870389,,,0,,,0,
2594915,RE0098,"Rua Rodrigues da Cunha, 480",,-19.88324565,-44.02700826,,,0,,,0,
2594916,RE0099,"Rua Rodrigues da Cunha, 742",,-19.88424265,-44.02929973,,,0,,,0,
2594917,VA0095,"Rua Romeu Diniz, 689 (PC)",,-19.85917895,-44.1369284,,,0,,,0,
2594919,NA0069,"Rua Romualdo José da Silva, 170",,-19.86282267,-44.04283077,,,0,,,0,
2594920,NA0070,"Rua Romualdo José da Silva, 255",,-19.86259978,-44.04256386,,,0,,,0,
2594921,SE0164,"Rua Joaquim Camargos, 310 (L. O. Cond. Central Garden)",,-19.91051634,-44.07994604,,,0,,,0,
2594922,RE0100,"Rua Rubi, 350 (L. O E. M. Rita Carmelinda Rocha)",,-19.88056243,-44.0294005,,,0,,,0,
2594923,RE0101,"Rua Rubi, 59",,-19.88194001,-44.02744386,,,0,,,0,
2594927,NA0071,"Rua Safira, 296",,-19.85446691,-44.03002406,,,0,,,0,
2594928,RE0102,"Rua Monsenhor João Martins, 2041",,-19.90213696,-44.02965838,,,0,,,0,
2594930,IN0112,"Rua Santa Maria, 1230",,-19.97266815,-44.05229107,,,0,,,0,
2594932,NA0074,"Rua Santa Maria, 198",,-19.85808098,-44.03795323,,,0,,,0,
2594935,NA0077,"Rua Santa Maria, 354",,-19.85740403,-44.03621859,,,0,,,0,
2594937,IN0228,"Rua Santa Maria, 489 (L. O. 471)",,-19.97146549,-44.04553003,,,0,,,0,
2594938,NA0078,"Rua Santa Maria, 582",,-19.85652601,-44.03392954,,,0,,,0,
2594939,IN0113,"Rua Santa Maria, 580",,-19.97278606,-44.04634234,,,0,,,0,
2594940,NA0079,"Rua Santa Maria, 878",,-19.85519422,-44.03046721,,,0,,,0,
2594942,IN0114,"Rua Santa Maria, 968",,-19.97237642,-44.04985578,,,0,,,0,
2594944,EL0142,"Rua Santana, 382",,-19.93107121,-44.03445914,,,0,,,0,
2594946,SE0165,"Rua Santa Se, 39",,-19.92041475,-44.0997533,,,0,,,0,
2594947,SE0166,"Rua Santa Se, 100",,-19.9193182,-44.0997708,,,0,,,0,
2594948,SE0167,"Rua Santo Lenho, 214",,-19.89842117,-44.07715905,,,0,,,0,
2594949,SE0168,"Rua Santo Lenho, oposto 225, Alvorado",,-19.89633243,-44.07904843,,,0,,,0,
2594950,SE0169,"Rua Santo Lenho, 215",,-19.89834529,-44.07733483,,,0,,,0,
2594951,SE0170,"Rua Santo Lenho, 390",,-19.89735045,-44.07811764,,,0,,,0,
2594952,IN0115,"Rua São Dimas, 149",,-19.96976624,-44.02908987,,,0,,,0,
2594953,EL0143,"Rua São José, 213",,-19.92608362,-44.03052382,,,0,,,0,
2594954,EL0144,"Rua Sebastião Viana, 80",,-19.92263127,-44.04283485,,,0,,,0,
2594956,VA0096,"Rua Sema, 1015, Icaivera",,-19.85781539,-44.14272851,,,0,,,0,
2594957,VA0097,"Rua Sema, s/n (L. O. 1200)",,-19.85746648,-44.1404704,,,0,,,0,
2594958,VA0098,"Rua Sema, 1200",,-19.85758386,-44.14044507,,,0,,,0,
2594959,SE0171,"Rua Sete, 135",,-19.87152914,-44.08566535,,,0,,,0,
2594960,EL0145,"Rua Sete, 585 (PC)",,-19.91802122,-44.05842337,,,0,,,0,
2594969,PE0092,"Rua Simonesia, 291",,-19.93128703,-44.12567736,,,0,,,0,
2594970,PE0093,"Rua Simonesia, 495",,-19.93014397,-44.12615115,,,0,,,0,
2594972,PE0095,"Rua Simonésia, 45, Industrial São Luiz",,-19.93385896,-44.12472075,,,0,,,0,
2594973,PE0096,"Rua Simonesia, 62",,-19.93382083,-44.12464955,,,0,,,0,
2594974,PE0097,"Rua Simonesia, s/n (L. O. 1020)",,-19.92415405,-44.12837327,,,0,,,0,
2594975,VA0099,"Rua Sítio da Lagoa, 404",,-19.85035054,-44.15146989,,,0,,,0,
2594976,VA0100,"Rua Sítio da Lagoa, s/n",,-19.85035138,-44.15140003,,,0,,,0,
2594977,NA0081,"Rua Sofia Dias Menezes Filho, 63",,-19.84003408,-44.02411366,,,0,,,0,
2594978,VA0101,"Rua Stela Diniz Macedo, 1077 (Ecoponto Darcy Ribeiro)",,-19.86255845,-44.13260968,,,0,,,0,
2594979,VA0102,"Rua Stela Diniz Macedo, 700",,-19.86192826,-44.13065528,,,0,,,0,
2594980,VA0103,"Rua Stela Diniz Macedo, 813",,-19.86287696,-44.13099927,,,0,,,0,
2594981,VA0104,"Rua Sycaba, 1254, Icaivera",,-19.85800216,-44.14905908,,,0,,,0,
2594982,VA0105,"Rua Sycaba, 98, Icaivera",,-19.8580781,-44.14940207,,,0,,,0,
2594983,,"Rua 15, 378a",,-19.93053477,-44.09998347,,,0,,,0,
2594984,SE0173,"Rua Tereza Cristina, 105",,-19.93146038,-44.08318769,,,0,,,0,
2594985,IN0116,"Rua Tereza Gonçalves, 130",,-19.96135891,-44.03584788,,,0,,,0,
2594986,SE0336,"Rua Leopoldina, 142",,-19.90184025,-44.07741861,,,0,,,0,
2594987,IN0117,"Rua Tiradentes, 1531",,-19.97450558,-44.0434405,,,0,,,0,
2594988,IN0118,"Rua Tiradentes, 2286 (L. O. Supermercados BH)",,-19.97411042,-44.04186767,,,0,,,0,
2594990,IN0119,"Rua Tiradentes, 1875 (Posto de Gasolina)",,-19.97192364,-44.03951491,,,0,,,0,
2594991,IN0120,"Rua Tiradentes, 2750 (CSU Amazonas)",,-19.97017017,-44.03750724,,,0,,,0,
2594992,IN0121,"Rua Tiradentes, 2384 (Caixa Econômica Federal)",,-19.96950535,-44.03572738,,,0,,,0,
2594994,IN0122,"Rua Tiradentes, 2608",,-19.96885397,-44.03377453,,,0,,,0,
2594995,IN0123,"Rua Tiradentes, 2640",,-19.96869512,-44.03358613,,,0,,,0,
2594996,IN0124,"Rua Tiradentes, 2842",,-19.96803399,-44.03128149,,,0,,,0,
2594997,IN0125,"Rua Tiradentes, 2874",,-19.9676546,-44.03047792,,,0,,,0,
2594998,IN0126,"Rua Tiradentes, 3279",,-19.96684761,-44.02808784,,,0,,,0,
2595000,PE0098,"Rua Topazio, 255",,-19.91752116,-44.13221875,,,0,,,0,
2595001,PE0099,"Rua Topazio, 280",,-19.91754936,-44.13214713,,,0,,,0,
2595003,EL0151,"Rua Três, 106",,-19.91984183,-44.05511252,,,0,,,0,
2595004,RE0248,"Rua Treze, 305",,-19.88704105,-44.05313137,,,0,,,0,
2595005,,"Rua Treze de Maio, 242",,-19.92699974,-44.04059495,,,0,,,0,
2595006,RI0116,"Rua Trieste, 50",,-19.94709935,-44.04631613,,,0,,,0,
2595008,RE0215,"Rua Trinta e Quatro, 10",,-19.90301477,-44.0390252,,,0,,,0,
2595009,RE0105,"Rua Trinta Quatro, 68 (Campo de Futebol)",,-19.90284895,-44.03573445,,,0,,,0,
2595010,RE0106,"Rua Quinze, 215, Milanez",,-19.90823361,-44.02927159,,,0,,,0,
2595011,RE0107,"Avenida Águas Marinhas, 46",,-19.87429158,-44.02103481,,,0,,,0,
2595012,RE0108,"Rua Diamante, 332",,-19.87455209,-44.02169424,,,0,,,0,
2595015,NA0083,"Rua Ubatuba, 189",,-19.86502384,-44.0286318,,,0,,,0,
2595016,NA0082,"Rua Ubatuba, 235",,-19.86505262,-44.02880322,,,0,,,0,
2595017,SE0352,"Rua Um, s/n",,-19.87740711,-44.08747489,,,0,,,0,
2595018,IN0127,"Rua Um, 303 (Sesi Benjamin Guimarães)",,-19.9694035,-44.04835792,,,0,,,0,
2595020,IN0129,"Rua I, 509",,-19.97121272,-44.0483132,,,0,,,0,
2595021,IN0130,"Rua Um, 54",,-19.96899551,-44.04853658,,,0,,,0,
2595022,SE0177,"Rua Maria de Lourdes Frias, s/n (L. O. 57)",,-19.89022575,-44.08591189,,,0,,,0,
2595023,SE0178,"Rua Um, s/n (L. O. 95)",,-19.87284521,-44.08578904,,,0,,,0,
2595024,RE0109,"Rua Um, 160",,-19.87160383,-44.02093921,,,0,,,0,
2595025,RE0110,"Rua Um, 171",,-19.87163642,-44.02102664,,,0,,,0,
2595026,IN0131,"Rua Vasco de Azevedo, 417",,-19.96661342,-44.01600119,,,0,,,0,
2595028,IN0132,"Rua Vasco de Azevedo, 711",,-19.96830018,-44.01786043,,,0,,,0,
2595029,SE0179,"Avenida Dílson de Oliveira, 772",,-19.9138625,-44.07580128,,,0,,,0,
2595030,VA0106,"Rua Via Principal 1, s/n",,-19.8288176,-44.14740749,,,0,,,0,
2595031,VA0107,"Rua Via Coletora 4, 159",,-19.82753211,-44.14866972,,,0,,,0,
2595032,VA0108,"Rua Via Coletora 4, s/n (L. O. 420)",,-19.82560869,-44.14976109,,,0,,,0,
2595033,VA0109,"Rua Via Coletora 4, s/n (L. O. 595)",,-19.82409805,-44.14976395,,,0,,,0,
2595034,VA0110,"Rua Via Coletora 5, 196 (L. O. Supermercados Campos Sá)",,-19.8217223,-44.14401141,,,0,,,0,
2595035,VA0111,"Rua Via Coletora 5, 57",,-19.82261844,-44.1434098,,,0,,,0,
2595038,SE0260,"Rua Vereador Gonçalo Bráz de Mattos, 354",,-19.89362173,-44.08671991,,,0,,,0,
2595044,SE0180,"Rua Vereador João Costa, 295 (E. M. Cel. Antônio Augusto Diniz Costa)",,-19.93193476,-44.08601656,,,0,,,0,
2595045,SE0181,"Rua Vereador João Cota, 51 (Praça Cláudio Lúcio Campos - Curumim)",,-19.93234152,-44.08389825,,,0,,,0,
2595046,SE0182,"Rua Vereador José Augusto Diniz, 132",,-19.91950097,-44.09586165,,,0,,,0,
2595048,SE0184,"Rua  Vereador  José Augusto Diniz, 612",,-19.922453,-44.098981,,,0,,,0,
2595049,SE0185,"Rua Vereador José Augusto Diniz, próximo 748",,-19.92344339,-44.09991785,,,0,,,0,
2595050,SE0186,"Rua Vicente dos Santos, oposto 279",,-19.93154946,-44.08613924,,,0,,,0,
2595051,SE0187,"Rua Vicente dos Santos, 354",,-19.93243431,-44.08694026,,,0,,,0,
2595054,EL0157,"Rua Vicente Lopes da Rocha, 202",,-19.9235155,-44.03513904,,,0,,,0,
2595056,EL0158,"Rua Vicente Lopes da Rocha, 382",,-19.92347616,-44.03438481,,,0,,,0,
2595057,PE0100,"Avenida Tropical, 1301, Tropical",,-19.91872669,-44.11678104,,,0,,,0,
2595058,,"Rua Vinte e Dois, 177",,-19.92445905,-44.11805393,,,0,,,0,
2595059,NA0084,"Rua Vinte e Nove, 121",,-19.84874811,-44.03430417,,,0,,,0,
2595060,NA0085,"Rua Vinte e Nove, s/n (L. O. 84)",,-19.85129253,-44.03622508,,,0,,,0,
2595061,NA0086,"Rua Vinte e Nove, 474",,-19.84875441,-44.03439,,,0,,,0,
2595063,RE0112,"Rua Vinte e Oito, 228",,-19.91908704,-44.03681575,,,0,,,0,
2595065,,"Rua Vinte e Um, 132",,-19.92502005,-44.11753331,,,0,,,0,
2595066,,"Rua Vinte e Um, 364",,-19.92478132,-44.11976589,,,0,,,0,
2595067,RE0113,"Rua Vinte Sete, 127",,-19.90458237,-44.04045012,,,0,,,0,
2595068,SE0188,"Rua Vista Alegre, 107",,-19.91967892,-44.09787148,,,0,,,0,
2595069,PE0104,"Rua Vitória, 263",,-19.92891788,-44.12550545,,,0,,,0,
2595070,VA0112,"Rua Via Principal 1, 1247",,-19.83264465,-44.14886745,,,0,,,0,
2595071,VA0113,"Rua Via Principal 1, 1378",,-19.83240749,-44.14873339,,,0,,,0,
2595072,VA0114,"Rua Via Principal 1, 1765 (L. O. Praça do Coreto)",,-19.8298146,-44.14774741,,,0,,,0,
2595073,VA0115,"Rua Via Principal 1, 2110",,-19.82676183,-44.14604928,,,0,,,0,
2595074,VA0116,"Rua Via Principal 1, 2175",,-19.82675562,-44.14628793,,,0,,,0,
2595075,VA0117,"Rua Via Principal 1, 2335",,-19.82640786,-44.14513402,,,0,,,0,
2595076,VA0118,"Rua Via Principal 1, 2414",,-19.82628754,-44.1443407,,,0,,,0,
2595077,VA0119,"Rua Via Principal 1, 2485",,-19.82570914,-44.14384907,,,0,,,0,
2595078,VA0120,"Rua Via Principal 1, 2585",,-19.82485353,-44.14360036,,,0,,,0,
2595079,VA0121,"Rua Via Principal 1, 2624",,-19.82474688,-44.14345537,,,0,,,0,
2595080,VA0122,"Rua Via Principal 1, 2834",,-19.82313914,-44.14323209,,,0,,,0,
2595081,VA0218,"Rua Via Principal 1, s/n (L. O. Penitenciária Nelson Hungria)",,-19.8215934,-44.14216408,,,0,,,0,
2595082,PE0121,"Rua Ipê, s/n",,-19.92521108,-44.13130396,,,0,,,0,
2595083,VA0124,"Rua Via Principal 1, 2012",,-19.82826072,-44.14710447,,,0,,,0,
2595084,VA0125,"Rua Via Principal 2, 1517",,-19.82885278,-44.15700218,,,0,,,0,
2595085,VA0126,"Rua Via Principal 2, 1543",,-19.82883548,-44.15718023,,,0,,,0,
2595086,VA0127,"Rua Via Principal 2, 1739",,-19.82730912,-44.15819346,,,0,,,0,
2595087,VA0128,"Rua Via Principal 2, 1704",,-19.82739931,-44.1580932,,,0,,,0,
2595088,VA0129,"Rua Via Principal 2, 1840",,-19.82598436,-44.15763507,,,0,,,0,
2595089,VA0130,"Rua Via Principal 2, 1909",,-19.82589312,-44.1576992,,,0,,,0,
2595090,VA0131,"Rua Via Principal 2, 2061",,-19.82463747,-44.15676209,,,0,,,0,
2595091,VA0132,"Rua Via Principal 2, S/N (L.O 2174)",,-19.82379548,-44.15450808,,,0,,,0,
2595092,VA0133,"Rua Via Principal 2, 2200",,-19.82386078,-44.15455291,,,0,,,0,
2595093,VA0134,"Rua Via Principal 2, s/n (L. O. 2461A)",,-19.82433115,-44.15289578,,,0,,,0,
2595094,VA0135,"Rua Via Principal 2, 2481",,-19.82422007,-44.15288378,,,0,,,0,
2595095,VA0136,"Rua Via Principal 2, 2693",,-19.82301068,-44.1512126,,,0,,,0,
2595096,VA0137,"Rua Via Principal 2, s/n (Centro Comunitário Santa Clara)",,-19.8226999,-44.15040665,,,0,,,0,
2595097,VA0138,"Rua Via Principal 2, 2917",,-19.82195257,-44.14928044,,,0,,,0,
2595098,VA0139,"Rua Via Principal 2, 3150",,-19.8210326,-44.14750253,,,0,,,0,
2595099,VA0140,"Rua Via Principal 2, 3190",,-19.82101565,-44.14734482,,,0,,,0,
2595100,VA0141,"Rua Via Principal 2, 3293",,-19.8200773,-44.14632374,,,0,,,0,
2595101,VA0142,"Rua Via Principal 2, 3343",,-19.81989129,-44.14615004,,,0,,,0,
2595102,RI0117,"Rua Wilma de Andrade, 290",,-19.97643218,-44.06298933,,,0,,,0,
2595103,RI0118,"Rua Wilma de Andrade, 70",,-19.97438198,-44.06226995,,,0,,,0,
2595104,SE0365,"Rua Zamiro Nelson de Souza, 429",,-19.9187898,-44.07115847,,,0,,,0,
2595105,SE0190,"Rua Zamiro Nelson de Souza, 597",,-19.91901593,-44.06962136,,,0,,,0,
2595106,SE0191,"Rua Zamiro Nelson de Souza, 604",,-19.91911882,-44.06952096,,,0,,,0,
2595109,VA0143,"Via Capão das Cobras, 18",,-19.85856051,-44.13522107,,,0,,,0,
2595110,VA0144,"Via de Acesso ao Estaleiro II, 3019 (PC)",,-19.81838964,-44.137015,,,0,,,0,
2595111,VA0145,"Via de Acesso ao Estaleiro II, 3015",,-19.81905805,-44.13742492,,,0,,,0,
2595112,VA0146,"Rua Sema, 1300",,-19.85467586,-44.14694384,,,0,,,0,
2595113,EL0159,"Via Expressa Francisco Cleuton Lopes, 1101",,-19.93299949,-44.03583705,,,0,,,0,
2595114,EL0160,"Via Expressa, 5701, Beatriz",,-19.9263202,-44.06609605,,,0,,,0,
2595115,EL0161,"Via Expressa Francisco Cleuton Lopes, 1720",,-19.93052313,-44.04034465,,,0,,,0,
2595116,SE0192,"Via Expressa Francisco Cleuton Lopes, 5128",,-19.92871955,-44.07190066,,,0,,,0,
2595117,EL0162,"Via Expressa Francisco Cleuton Lopes, s/n (L. O. Clube Ascobom)",,-19.92874904,-44.04246131,,,0,,,0,
2595119,SE0193,Via Expressa Francisco Cleuton Lopes 6996 (Posto de Gasolina),,-19.92993805,-44.07788945,,,0,,,0,
2595120,EL0164,"Via Expressa Francisco Cleuton Lopes, 2990",,-19.9216624,-44.04874172,,,0,,,0,
2595121,EL0165,"Via Expressa, 4884",,-19.92508828,-44.06384895,,,0,,,0,
2595122,EL0166,"Via Expressa Francisco Cleuton Lopes, 3115",,-19.92131306,-44.05025393,,,0,,,0,
2595123,EL0167,"Via Expressa Francisco Cleuton Lopes, 3600 (Tracbel)",,-19.91861263,-44.05188944,,,0,,,0,
2595124,EL0168,"Via Expressa, 4018",,-19.91848221,-44.05740806,,,0,,,0,
2595127,EL0169,"Via Expressa, 4249",,-19.91894112,-44.05692269,,,0,,,0,
2595128,RE0151,"Rua Vinte e Oito, 32",,-19.91700095,-44.03637091,,,0,,,0,
2595129,SE0194,"Via Expressa , 3201",,-19.93064308,-44.09720404,,,0,,,0,
2595130,EL0170,"Via Expressa, 2014",,-19.92446992,-44.06177184,,,0,,,0,
2595131,EL0171,"Via Expressa, 1559",,-19.92198501,-44.05968595,,,0,,,0,
2595132,EL0172,"Via Expressa Francisco Cleuton Lopes, 790",,-19.9360484,-44.03254501,,,0,,,0,
2595133,EL0173,"Via Expressa Francisco Cleuton Lopes , 817",,-19.93662035,-44.03181106,,,0,,,0,
2595134,SE0195,"Via Expressa,1336",,-19.93319812,-44.08093276,,,0,,,0,
2595135,,"Via Expressa Francisco Cleuton Lopes, 94",,-19.91954659,-44.05161113,,,0,,,0,
2595137,EL0175,"Via Expressa Francisco Cleuton Lopes, s/n (L.O Metrô), Água Branca",,-19.93710733,-44.03020944,,,0,,,0,
2595139,SE0197,"Via Vereador Joaquim Costa, 1436 (L. O. VM5)",,-19.9002575,-44.06194389,,,0,,,0,
2595140,RE0114,"Via Vereador Joaquim Costa, 122",,-19.89014418,-44.05453415,,,0,,,0,
2595141,SE0198,"Via Vereador Joaquim Costa, 1405 (GE Healthcare)",,-19.90034474,-44.06229796,,,0,,,0,
2595143,SE0200,"Via Vereador Joaquim Costa, 1436",,-19.89832958,-44.06073689,,,0,,,0,
2595144,SE0201,"Via Vereador Joaquim Costa, 1900",,-19.89258748,-44.05852373,,,0,,,0,
2595145,RE0115,"Via Vereador Joaquim Costa,185, Perobas",,-19.89038313,-44.05464133,,,0,,,0,
2595146,EL0199,"Avenida José Faria da Rocha, 613",,-19.94780708,-44.03458201,,,0,,,0,
2595147,SE0202,"Via Vereador Joaquim Costa, s/n (L. O. 435)",,-19.9044133,-44.0664002,,,0,,,0,
2595148,RE0116,"Avenida Antônio José da Rocha, s/n (L. O. 2º Rest. Popular Ressaca)",,-19.88572914,-44.03456847,,,0,,,0,
2595149,RE0117,"Avenida das Américas, 618",,-19.88681945,-44.04295238,,,0,,,0,
2595150,RE0232,"Avenida das Américas, 778",,-19.88706799,-44.04459835,,,0,,,0,
2595152,EL0176,"Avenida Helena de Vasconcelos Costa, 1241",,-19.90759557,-44.04905594,,,0,,,0,
2595153,EL0177,"Avenida Helena de Vasconcelos Costa, 201",,-19.91569277,-44.05501382,,,0,,,0,
2595154,NA0087,"Avenida João Soares, 1510",,-19.83731475,-44.02119439,,,0,,,0,
2595155,RE0038,"Avenida Princesa Isabel, 145, Arvoredo",,-19.87582522,-44.02509409,,,0,,,0,
2595156,RE0119,"Avenida Princesa Isabel, 128",,-19.87774353,-44.02328974,,,0,,,0,
2595157,PE0114,"Avenida Diamante, s/n",,-19.92385033,-44.13069387,,,0,,,0,
2595158,RE0120,"Rua Ademar dos Santos Barbosa, 147",,-19.88721874,-44.05401834,,,0,,,0,
2595159,NA0088,"Rua Violeta, 994 (L. O. 12), Nossa Senhora da Conceição",,-19.85159847,-44.03862467,,,0,,,0,
2595160,NA0089,"Rua Maria Soares Chaves, 145",,-19.83912749,-44.02119019,,,0,,,0,
2595161,NA0090,"Rua Orlando Lima de Melo, 178",,-19.840075,-44.02017963,,,0,,,0,
2595162,NA0091,"Rua Seis,165",,-19.85221865,-44.0352506,,,0,,,0,
2595164,RE0140,"Rua Dezenove, 155",,-19.90585907,-44.03645324,,,0,,,0,
2595165,NA0154,"Avenida Tancredo Neves, 88",,-19.84510367,-44.01975341,,,0,,,0,
2595166,SE0205,"Rua Manoel Alves, 161",,-19.90809226,-44.08233176,,,0,,,0,
2595167,SE0241,"Rua Aníbal Baca, s/n (L. O. 64)",,-19.90885091,-44.06764543,,,0,,,0,
2595168,EL0190,"Rua Rio Comprido, s/n (Portaria 6 PUC MG)",,-19.94112263,-44.07654908,,,0,,,0,
2595169,PE0113,"Rua Ipê, s/n",,-19.92540107,-44.13127419,,,0,,,0,
2595172,EL0214,"Avenida João César de Oliveira, 151",,-19.94671103,-44.0312139,,,0,,,0,
2595173,EL0207,"Rua Dez, 221",,-19.91680895,-44.06085091,,,0,,,0,
2595174,NA0114,"Rua Felipe dos Santos, 396",,-19.84730029,-44.02314768,,,0,,,0,
2595175,VA0175,"Rua Milton Alves do Valê, 223",,-19.86112959,-44.13108667,,,0,,,0,
2595176,SE0208,"Praça Farmacêutico João da Rocha Cunha, 167 (UPA Unidade 16)",,-19.91041243,-44.08231678,,,0,,,0,
2595177,RI0120,"Rua Leblon, 193",,-19.97416288,-44.06583538,,,0,,,0,
2595178,EL0239,"Rua Tapijara, 830",,-19.93219351,-44.0502988,,,0,,,0,
2595179,PE0124,"Rua Mato Grosso, 218",,-19.92855803,-44.10386988,,,0,,,0,
2595180,RE0147,"Rua Monsenhor João Martins, 645",,-19.90336095,-44.03428734,,,0,,,0,
2595182,EL0211,"Avenida das Bandeiras, 365",,-19.92801467,-44.03753826,,,0,,,0,
2595183,NA0097,"Rua Joaíma, 523",,-19.86068304,-44.03846534,,,0,,,0,
2595185,,"Rua Laudelina Castorina, s/n (E. M. Professor Wancleber Pacheco)",,-19.85969611,-44.02064884,,,0,,,0,
2595186,IN0145,"Rua Monsenhor Messías, 815",,-19.96582916,-44.0558589,,,0,,,0,
2595187,IN0151,"Rua Dorinato Lima, 144",,-19.96132248,-44.0347912,,,0,,,0,
2595188,IN0148,"Rua Três, 225",,-19.9693859,-44.04783171,,,0,,,0,
2595189,EL0178,"Rua Marechal Costa e Silva, 295 (Sentido Bairro)",,-19.94261259,-44.02954292,,,0,,,0,
2595190,EL0227,"Via Expressa Francisco Cleuton Lopes, 346 (Inova)",,-19.92601909,-44.04391277,,,0,,,0,
2595191,SE0229,"Rua Francisco Almeida Melo, 547",,-19.88313458,-44.08932597,,,0,,,0,
2595192,IN0140,"Rua Tiradentes, 1201 (L. O. 39º Btl. PM)",,-19.97079586,-44.03806001,,,0,,,0,
2595194,SE0254,"Rua Jacarandá, 567",,-19.89431155,-44.09465253,,,0,,,0,
2595195,VA0183,"Av. Belgas, 204",,-19.87791731,-44.14155297,,,0,,,0,
2595196,EL0212,"Avenida Pio XII, 2",,-19.92417511,-44.03274823,,,0,,,0,
2595197,EL0217,"Rua Verão, s/n (L. O. 234)",,-19.92513918,-44.02399869,,,0,,,0,
2595198,SE0216,"Rua Miguel de Souza Arruda, 62 (L. O. Cemitério Bom Jesus)",,-19.91084868,-44.07810235,,,0,,,0,
2595199,RI0139,"Rua Monsenhor Messias, 427",,-19.96199938,-44.05592948,,,0,,,0,
2595200,NA0100,"Rua Monsenhor Guedes, s/n (L. O. 354)",,-19.86000227,-44.02251306,,,0,,,0,
2595201,NA0103,"Rua Orlando Lima Melo, 327",,-19.84174524,-44.01936258,,,0,,,0,
2595202,IN0137,"Avenida Babita Camargos, 357 (Pç dos Trabalhadores), Jardim Industrial",,-19.96308254,-44.02672872,,,0,,,0,
2595203,RI0124,"Avenida Marte, 948 (Residencial Pedras do Riacho)",,-19.97191901,-44.05636678,,,0,,,0,
2595204,IN0175,"Rua Montevidéu, 124",,-19.97266356,-44.02863,,,0,,,0,
2595205,NA0108,"Rua Maria Bitencourt, 39, Tijuca",,-19.8598994,-44.01879317,,,0,,,0,
2595206,IN0152,"Rua Dorinato Lima, 379",,-19.96341612,-44.03340592,,,0,,,0,
2595207,RI0158,"Avenida Francisco Firmo de Matos, 405",,-19.95529008,-44.05709461,,,0,,,0,
2595208,RI0157,"Avenida Francisco Firmo de Matos, 3470",,-19.95359711,-44.05493052,,,0,,,0,
2595209,SE0213,"Rua José Antônio Tomaz Filho, 510",,-19.9278555,-44.09607947,,,0,,,0,
2595210,IN0163,"Rua Coronel José Domingos Baeta, 1330",,-19.9745921,-44.04370765,,,0,,,0,
2595211,IN0146,"Rua Monsenhor Messias, 657",,-19.96401622,-44.05571088,,,0,,,0,
2595212,VA0158,"Estrada Vereador Jose Ferreira (LMG-808), 55 - km 6.3 (Point das Frutas)",,-19.8582616,-44.12909003,,,0,,,0,
2595214,IN0157,"Rua Manjericão, 1065",,-19.97310433,-44.05276311,,,0,,,0,
2595215,PE0108,"Rua Benzol, 276",,-19.92809695,-44.11577145,,,0,,,0,
2595216,PE0107,"Avenida Durval Alves de Faria, 2525",,-19.92397893,-44.11638632,,,0,,,0,
2595217,SE0267,"Rua Olhos D Água, 328",,-19.92168086,-44.10411492,,,0,,,0,
2595218,RI0134,"Rua Corcovado, 642, Monte Castelo",,-19.94418144,-44.06715723,,,0,,,0,
2595219,RI0130,"Rua Marte, 477 (Colégio Sto Agostinho)",,-19.96238715,-44.05810094,,,0,,,0,
2595220,RI0141,"Rodovia Fernão Dias (BR-381), s/n - km 481.2 (L. O. Carrefour), Jardim Riacho das Pedras",,-19.95896977,-44.06238894,,,0,,,0,
2595221,RI0128,"Rua Marte, 743",,-19.96503412,-44.05866563,,,0,,,0,
2595222,RE0123,"Avenida Geraldo Rocha, 205 (L. O. nº 800) (L. O. AETHRA)",,-19.87088009,-44.03205149,,,0,,,0,
2595223,SE0207,"Praça Silviano Brandão, 21 (Caixa EF)",,-19.91286041,-44.08424886,,,0,,,0,
2595224,SE0233,"Rua do Registro, s/n (L. O 288)",,-19.91110124,-44.09012835,,,0,,,0,
2595227,SE0204,"Avenida Padre Joaquim Martins, 470 (E. M. Walter Lopes)",,-19.90038612,-44.08203747,,,0,,,0,
2595228,PE0110,"Rua Ipiranga, 64",,-19.93059929,-44.11157634,,,0,,,0,
2595229,IN0160,"Rua Monsenhor Horta, 143",,-19.95430018,-44.00863825,,,0,,,0,
2595230,SE0243,"Rua Natal Veronez, 689",,-19.91430682,-44.0691711,,,0,,,0,
2595231,SE0225,"Rua Francisco D Ávila, 72",,-19.90135191,-44.07593402,,,0,,,0,
2595232,IN0162,"Rua Antônio Gonçalves Neto, s/n (PRF)",,-19.95448322,-44.02441269,,,0,,,0,
2595233,SE0231,"Rua Felisbino Pinto Monteiro, s/n (L. O. 1349)",,-19.89438594,-44.0913122,,,0,,,0,
2595234,RE0129,"BR-040, s/n, KM 526.5 (L. O. CEASA)",,-19.89433677,-44.05025614,,,0,,,0,
2595235,VA0159,"Estrada Vereador Jose Ferreira (LMG-808), s/n - km 6.1",,-19.86035156,-44.1254991,,,0,,,0,
2595236,IN0150,"Rua Japurá, 691",,-19.96634946,-44.04294545,,,0,,,0,
2595237,PE0136,"Rua Refinária Duque de Caxias, 370",,-19.93029083,-44.11563969,,,0,,,0,
2595239,VA0174,"R. Retiro das Esmeraldas, 993, Retiro",,-19.83584439,-44.15267274,,,0,,,0,
2595240,NA0104,"Rua João Menezes Soares, 141",,-19.8380423,-44.02206741,,,0,,,0,
2595241,RI0154,"Rua Rio Elba, s/n (L. O. 410)",,-19.95633093,-44.0607896,,,0,,,0,
2595242,RI0155,"Rua Rio Solimões, 387 (Depósito Rio Paranaguá)",,-19.95180985,-44.05897073,,,0,,,0,
2595243,RE0131,"Alameda dos Sabiás, 206",,-19.88182219,-44.04021836,,,0,,,0,
2595244,EL0216,"R. Cardeal Arcoverde, 165",,-19.93105795,-44.03527378,,,0,,,0,
2595245,SE0209,"Via Manoel Jacinto Coelho Júnior, 905 (CD Supervarejista)",,-19.89558407,-44.06600385,,,0,,,0,
2595246,SE0206,"Avenida Padre Joaquim Martins, próximo 1443",,-19.89106239,-44.0860564,,,0,,,0,
2595247,PE0115,"Rua Barra Feliz, 470",,-19.92815169,-44.12501023,,,0,,,0,
2595248,SE0240,"Rua João Bôsco Martins, 118",,-19.91728874,-44.07191666,,,0,,,0,
2595249,RE0124,"Avenida Antônio José da Rocha, s/n (L. O. 398)",,-19.88520661,-44.03104238,,,0,,,0,
2595250,VA0150,"Rua Via Principal 2, 2006",,-19.8248452,-44.15684852,,,0,,,0,
2595251,VA0149,"Rua Via Principal 1, s/n (Praça do Coreto)",,-19.830066,-44.1477517,,,0,,,0,
2595252,RI0183,"Rua Rio Mantiqueira, S/N",,-19.95266467,-44.0626076,,,0,,,0,
2595253,RI0148,"Rua Dona Judith de Morais e Barros, 45",,-19.97426334,-44.0609888,,,0,,,0,
2595254,PE0120,"Avenida Irmã Benigna Vitina de Jesus, 30",,-19.92087341,-44.10883604,,,0,,,0,
2595255,VA0171,"Rua Retiro dos Padres, s/n (L. O. 322)",,-19.83670587,-44.14483968,,,0,,,0,
2595256,EL0186,"Via Expressa Francisco Cleuton Lopes, 3001 (CNR)",,-19.92425713,-44.04535085,,,0,,,0,
2595257,EL0184,"Via Expressa Francisco Cleuton Lopes, 106, Beatriz",,-19.92553961,-44.06494196,,,0,,,0,
2595258,RE0130,"Rua Alameda dos Rouxinóis, s/n (L. O. 285)",,-19.88391185,-44.04006874,,,0,,,0,
2595260,NA0098,"Rua Maria Aparecida, 163",,-19.84112481,-44.03210213,,,0,,,0,
2595261,IN0135,"Avenida Coronel Benjamim Guimarães, 1538",,-19.97112125,-44.03089233,,,0,,,0,
2595262,NA0093,"Rua Lúcia Muniz, 236",,-19.84153811,-44.02579358,,,0,,,0,
2595263,EL0183,"Rua Américo Santiago Piacenza, s/n",,-19.94495169,-44.07482565,,,0,,,0,
2595265,EL0179,"Rua Marechal Costa e Silva, 149 (Sentido Cidade Industrial)",,-19.94180584,-44.0284522,,,0,,,0,
2595266,RI0119,"Rua Geremias Alves, 236",,-19.97420699,-44.0590998,,,0,,,0,
2595268,RI0121,"Rua Wilma de Andrade, 297",,-19.97626618,-44.06282362,,,0,,,0,
2595269,RI0122,"Rua Rio Paraopeba, 239",,-19.95106047,-44.04501047,,,0,,,0,
2595270,RI0123,"Rua Wilma de Andrade, 51",,-19.97422644,-44.06213587,,,0,,,0,
2595271,SE0210,"Via Vereador Joaquim Costa, 246 (ALIMENTA)",,-19.89308908,-44.05968982,,,0,,,0,
2595272,RI0125,"Rua Maria Olinta, 251",,-19.95278094,-44.03854194,,,0,,,0,
2595273,IN0133,"Avenida Coronel Benjamim Guimarães, 1041",,-19.97367025,-44.03339184,,,0,,,0,
2595274,IN0134,"Avenida Coronel Benjamim Guimarães, 1285",,-19.97203396,-44.03179925,,,0,,,0,
2595275,NA0092,Rua Primeiro de Maio,,-19.84000456,-44.03003687,,,0,,,0,
2595276,RI0126,"Avenida Régulus, 240",,-19.96969748,-44.05794885,,,0,,,0,
2595277,NA0094,"Rua Lúcia Muniz, 456, Nacional",,-19.84258644,-44.02413953,,,0,,,0,
2595278,SE0211,"Rua Joaquim José, 1214",,-19.92607832,-44.08223617,,,0,,,0,
2595279,NA0095,"Rua Lúcia Muniz, 455",,-19.84237088,-44.02432297,,,0,,,0,
2595280,RI0127,"Rua Marte, 1122",,-19.96833559,-44.06034875,,,0,,,0,
2595281,IN0136,"Avenida Coronel Benjamin Guimaraes, 700",,-19.97095639,-44.03093199,,,0,,,0,
2595282,SE0212,"Rua Joaquim José, 2134",,-19.92968965,-44.08290423,,,0,,,0,
2595283,VA0178,"Avenida Colibris, 799",,-19.87435816,-44.14027691,,,0,,,0,
2595284,RI0131,"Rua Marte, 478 (L. O. Colégio Sto Agostinho",,-19.96244817,-44.05826314,,,0,,,0,
2595285,EL0180,"Rua Manoel Pereira Mendes, 333 (CD Cofermeta)",,-19.9369519,-44.07716044,,,0,,,0,
2595286,NA0096,"Rua Quintino Bocaiúva, 142",,-19.85075691,-44.02644095,,,0,,,0,
2595287,EL0181,"Rua Manoel Pereira Mendes, s/n",,-19.93492689,-44.07835401,,,0,,,0,
2595288,SE0214,"Rua José Antônio Tomaz Filho, 531",,-19.92886161,-44.09717649,,,0,,,0,
2595289,SE0215,"Avenida Virgínia Graciosi Pacelli, s/n (L.O. 491), Arcádia, a",,-19.91031239,-44.07704951,,,0,,,0,
2595290,RI0132,"Rua Plutão, 72",,-19.95892456,-44.05658337,,,0,,,0,
2595291,IN0138,"Rua Monsenhor Joao Rodrigues Guimaráes, 119",,-19.96536774,-44.02664395,,,0,,,0,
2595292,RI0133,"Rua Rio Mantiqueira, 194",,-19.95031475,-44.06281084,,,0,,,0,
2595294,RI0136,"Rua Padre José Maria de Man, 1783",,-19.94804057,-44.07220231,,,0,,,0,
2595297,RE0121,"Avenida Geraldo Rocha, s/n (L. O. 544), Chácara Cotia",,-19.86803868,-44.03257663,,,0,,,0,
2595299,RE0122,"Avenida Geraldo Rocha, 546",,-19.86785704,-44.03243326,,,0,,,0,
2595300,RE0125,"Avenida Geraldo Rocha, s/n (L. O. 200)",,-19.87380399,-44.02707359,,,0,,,0,
2595301,RE0126,"BR-040, s/n - km 526.8",,-19.89697264,-44.05011861,,,0,,,0,
2595302,RE0127,"BR-040, s/n - Km 527.2 (Hotel Ibis)",,-19.90068532,-44.04993887,,,0,,,0,
2595303,SE0217,"Rua Maria de Lourdes Frias, 73",,-19.88925547,-44.08371804,,,0,,,0,
2595304,SE0218,"Rua Adutora Várzea das Flores, s/n, L.O 220, Fonte Grande",,-19.93249095,-44.09036214,,,0,,,0,
2595305,NA0099,"Rua Felipe dos Santos, 114",,-19.84888842,-44.02243479,,,0,,,0,
2595306,SE0219,"Rua Adutora Várzea das Flores, s/n (SMB), próximo 220, Santo Antônio",,-19.93242356,-44.09073584,,,0,,,0,
2595307,IN0139,"Rua Tiradentes, 2245 (Center Tiradentes) (Agibank)",,-19.96943841,-44.0358252,,,0,,,0,
2595308,SE0220,"Rua Adutora Várzea das Flores, 422",,-19.92978888,-44.09593241,,,0,,,0,
2595309,SE0221,"Rua Adutora Várzea das Flores, s/n",,-19.92986567,-44.09596476,,,0,,,0,
2595310,SE0222,"Rua Passos, 28",,-19.92692921,-44.09645425,,,0,,,0,
2595311,RE0128,"BR-040, s/n - Km 525,7",,-19.88696769,-44.05044116,,,0,,,0,
2595312,RI0137,Estação Rio Nilo - Plataforma C (Sentido Metrô / Cidade Industrial),,-19.95773155,-44.06119499,,,0,,,1,
2595313,,"Rua Alfa, 48",,-19.97034658,-44.05859624,,,0,,,0,
2595314,IN0141,"Rua Japurá, 286",,-19.96481875,-44.0398439,,,0,,,0,
2595315,EL0187,"Avenida Helena de Vasconcelos Costa, 2427 (Ambev)",,-19.91016303,-44.04898134,,,0,,,0,
2595316,EL0188,"BR-040, s/n - Km 528.6 (Posto Shell)",,-19.90859933,-44.04520357,,,0,,,0,
2595317,IN0142,"Rua Manjericão, 543",,-19.97389011,-44.04624235,,,0,,,0,
2595319,IN0143,"Rua Bartolomeu Bueno, 171",,-19.96879223,-44.05300051,,,0,,,0,
2595320,IN0218,"Rua Paes Leme, 22",,-19.96566747,-44.05288503,,,0,,,0,
2595321,EL0189,"BR-040, s/n - Km 530.5",,-19.92131977,-44.03437829,,,0,,,0,
2595322,NA0150,"Avenida João Soares, s/n (L. O. 307)",,-19.83471279,-44.02441889,,,0,,,0,
2595323,,"Avenida João Soares, 1299",,-19.83404465,-44.02526246,,,0,,,0,
2595324,RI0140,"Avenida Centauro, 233",,-19.96140025,-44.06377695,,,0,,,0,
2595325,SE0253,"Rua Jacarandá, s/n (L. O. 169)",,-19.89418638,-44.09442922,,,0,,,0,
2595326,RI0142,"Rua Rio Mantiqueira, 351",,-19.94861963,-44.06282474,,,0,,,0,
2595327,RE0135,"Rua Alvimar Carneiro, 1095",,-19.89470431,-44.02266937,,,0,,,0,
2595328,EL0191,"Via Expressa Francisco Cleuton Lopes, 1685",,-19.93058133,-44.04066771,,,0,,,0,
2595329,IN0147,"Rua Tiradentes, 2956",,-19.96724483,-44.02897223,,,0,,,0,
2595330,EL0192,"Avenida Teleférico, 386",,-19.93286513,-44.02959105,,,0,,,0,
2595331,RI0143,"Rua Rio Xingu, 1179, Riacho das Pedras",,-19.95430529,-44.05027508,,,0,,,0,
2595332,EL0193,"Avenida Teleférico, 608",,-19.93476158,-44.0288279,,,0,,,0,
2595333,EL0196,"Rua Gurupi, 167",,-19.92240727,-44.05609426,,,0,,,0,
2595334,EL0195,"Via Expressa Francisco Cleuton Lopes, 1138",,-19.93233495,-44.03620995,,,0,,,0,
2595335,EL0245,"Rua Gurupi, 25",,-19.92435617,-44.05563084,,,0,,,0,
2595336,RI0144,"Rua Rio Xingu, 746",,-19.95202225,-44.04789943,,,0,,,0,
2595337,EL0197,"Via Expressa Francisco Cleuton Lopes, s/n (Metrô)",,-19.93746378,-44.02978465,,,0,,,0,
2595338,EL0200,"Rua Tapijara, 1041",,-19.93174686,-44.04907596,,,0,,,0,
2595339,IN0153,"Rua Lafaiete, 172",,-19.9647971,-44.03173415,,,0,,,0,
2595340,EL0201,"Via Expressa, 4657",,-19.92267315,-44.05964923,,,0,,,0,
